Time,Inertial_X_Position,Inertial_Y_Position,Inertial_Z_Position,Body_U_Vel,Body_V_Vel,Body_W_Vel,Body_P_Vel,Body_Q_Vel,Body_R_Vel,Roll_Angle,Pitch_Angle,Yaw_Angle,Phase,Inertial_Vx,Inertial_Vy,Inertial_Vz,Eul_Phi_Dot,Eul_Theta_Dot,Eul_Psi_Dot
0,0,0,-9400,6,0,3,0,0,0,0,0,0,1,6,0,3,0,0,0
0.05,0.300589453812952,0,-9399.84080653184,6.02637887667127,0,3.36277752703643,0,-0.0194243623297907,0,0,-0.0271558563259255,0,1,6.02478438083246,0,3.36563340636025,0,-0.0194243623297907,0
0.1,0.60260343769224,0,-9399.66365083199,6.06445770355226,0,3.70636015969124,0,-0.0416856148342586,0,0,-0.114003323818152,0,1,6.0570710352609,0,3.71841946871575,0,-0.0416856148342586,0
0.15,0.906429971520214,0,-9399.4691848186,6.11633226314504,0,4.02934809656653,0,-0.06684982656074,0,0,-0.26877012817318,0,1,6.09736367401046,0,4.05799490676749,0,-0.06684982656074,0
0.2,1.21248025417875,0,-9399.25807558499,6.18409489352099,0,4.330336171468,0,-0.094954764530854,0,0,-0.499834195555971,0,1,6.14608327675302,0,4.38411922342601,0,-0.094954764530854,0
0.25,1.52118418938427,0,-9399.03099881741,6.26978423894602,0,4.60790796724763,0,-0.126004417807057,0,0,-0.815634408846017,0,1,6.20355527924594,0,4.69669161590368,0,-0.126004417807057,0
0.3,1.83298537816122,0,-9398.78863148939,6.37533411577153,0,4.8606251546476,0,-0.159964870407221,0,0,-1.22456760861863,0,1,6.27000111168253,0,4.99576300891197,0,-0.159964870407221,0
0.35,2.14833580064769,0,-9398.53164407384,6.5025224945968,0,5.08701344933235,0,-0.196761488335025,0,0,-1.73487566932533,0,1,6.34553421781767,0,5.28154334611869,0,-0.196761488335025,0
0.4,2.4676904056306,0,-9398.26069250396,6.65292137546708,0,5.28554694016742,0,-0.236277324956476,0,0,-2.35452629120613,0,1,6.43016026597798,0,5.55440439999627,0,-0.236277324956476,0
0.45,2.79150180303793,0,-9397.97641009822,6.82784812771846,0,5.45463281193069,0,-0.27835260130322,0,0,-3.0910908024829,0,1,6.52378092961292,0,5.81487846395762,0,-0.27835260130322,0
0.5,3.12021521718202,0,-9397.67939964455,7.02831871167801,0,5.59259866425485,0,-0.322785084859128,0,0,-3.95162180462285,0,1,6.62620037915408,0,6.06365337627793,0,-0.322785084859128,0
0.55,3.4542638118324,0,-9397.37022581431,7.25500312382866,0,5.69768471530498,0,-0.369331172530187,0,0,-4.94253295878197,0,1,6.73713349124168,0,6.3015643901315,0,-0.369331172530187,0
0.6,3.79406444710122,0,-9397.04940805022,7.50818343258655,0,5.76804317366949,0,-0.417707480556959,0,0,-6.06948264722515,0,1,6.85621474045166,0,6.52958344333662,0,-0.417707480556959,0
0.65,4.14001387712517,0,-9396.71741404393,7.78771491265652,0,5.80174696442634,0,-0.467592755061933,0,0,-7.33726269099026,0,1,6.98300678110126,0,6.74880639040244,0,-0.467592755061933,0
0.7,4.49248535042224,0,-9396.37465389173,8.0929910457036,0,5.79680980181015,0,-0.518629940024161,0,0,-8.74969280175542,0,1,7.11700783731897,0,6.96043873529113,0,-0.518629940024161,0
0.75,4.85182553458351,0,-9396.02147499077,8.42291352518692,0,5.75121930350479,0,-0.570428272579303,0,0,-10.3095210236221,0,1,7.25765718163834,0,7.16578034575413,0,-0.570428272579303,0
0.8,5.21835165579374,0,-9395.6581577167,8.77586886135787,0,5.66298442755705,0,-0.622565316279925,0,0,-12.0183301046293,0,1,7.40433817988699,0,7.36620954198101,0,-0.622565316279925,0
0.85,5.59234872297987,0,-9395.28491190634,9.14971369165413,0,5.53019796546179,0,-0.674588888942694,0,0,-13.8764495467047,0,1,7.55637859946581,0,7.56316683922653,0,-0.674588888942694,0
0.9,5.97406669698266,0,-9394.9018741585,9.54177140971375,0,5.35111412606063,0,-0.72601889071863,0,0,-15.8828730282412,0,1,7.7130481090985,0,7.75813849400024,0,-0.72601889071863,0
0.95,6.36371746744481,0,-9394.50910596172,9.94884316528264,0,5.12424038005392,0,-0.776349087991147,0,0,-18.035180981227,0,1,7.87355313441806,0,7.95263986607352,0,-0.776349087991147,0
1,6.76147151428366,0,-9394.10659266084,10.3672365753586,0,4.8484417000822,0,-0.82504895769115,0,0,-20.3294683347914,0,1,8.03702947228174,0,8.14819847513695,0,-0.82504895769115,0
1.05,7.16745415675109,0,-9393.69424328306,10.7928155306825,0,4.52305414123939,0,-0.871565742638281,0,0,-22.7602778035485,0,1,8.20253330647692,0,8.34633651370828,0,-0.871565742638281,0
1.1,7.58174133122399,0,-9393.27189125852,11.2210741826156,0,4.14800340427469,0,-0.915326909342786,0,0,-25.3205395906065,0,1,8.36903150772563,0,8.54855249011979,0,-0.915326909342786,0
1.15,8.00435488898098,0,-9392.83929608829,11.6472374599334,0,3.72392268780951,0,-0.955743232630942,0,0,-28.0015189729592,0,1,8.53539233875663,0,8.75630163118847,0,-0.955743232630942,0
1.2,8.43525746702435,0,-9392.39614603064,12.0663892193473,0,3.25226288792704,0,-0.992212753138643,0,0,-30.7927739139222,0,1,8.7003779132242,0,8.97097468796166,0,-0.992212753138643,0
1.25,8.87434705767809,0,-9391.94206189301,12.4736273431784,0,2.73538720695033,0,-1.0241258601029,0,0,-33.682125565458,0,1,8.86263996093189,0,9.19387487359545,0,-1.0241258601029,0
1.3,9.3214514844746,0,-9391.47660202635,12.8642427897618,0,2.17664168516935,0,-1.05087173837301,0,0,-36.6556452323387,0,1,9.02072060786996,0,9.42619283137708,0,-1.05087173837301,0
1.35,9.77632307957216,0,-9390.99926861785,13.2339168876014,0,1.58039328037934,0,-1.07184638045388,0,0,-39.6976620063332,0,1,9.17305995532736,0,9.66897978923215,0,-1.07184638045388,0
1.4,10.2386339466213,0,-9390.50951536173,13.5789282529134,0,0.952028081915167,0,-1.08646229763533,0,0,-42.7907957654304,0,1,9.31801219722204,0,9.92311940162703,0,-1.08646229763533,0
1.45,10.7079722754731,0,-9390.00675655281,13.8963579132542,0,0.297904186896198,0,-1.09415996657012,0,0,-45.9160204846099,0,1,9.45387180460602,0,10.1892991937575,0,-1.09415996657012,0
1.5,11.1838402421025,0,-9389.4903775904,14.1842789316102,0,-0.37474329762413,0,-1.0944209198563,0,0,-49.0527627325027,0,1,9.57891089079258,0,10.4679829716661,0,-1.0944209198563,0
1.55,11.6656540676114,0,-9388.95974680124,14.4419154782393,0,-1.05794387409365,0,-1.08678223651477,0,0,-52.1790397525091,0,1,9.69142822414423,0,10.759385990734,0,-1.08678223651477,0
1.6,12.1527468125422,0,-9388.41422839134,14.6697562926927,0,-1.74317432777065,0,-1.07085202141469,0,0,-55.2716405903188,0,1,9.78980948000166,0,11.0634550104959,0,-1.07085202141469,0
1.65,12.644374436358,0,-9387.85319622535,14.8696090976932,0,-2.42157254828477,0,-1.0463252979775,0,0,-58.3063523137575,0,1,9.87259725958594,0,11.3798555208237,0,-1.0463252979775,0
1.7,13.1397255494218,0,-9387.27604801945,15.0445858453783,0,-3.08416886245017,0,-1.01299959671431,0,0,-61.2582315105394,0,1,9.9385682398416,0,11.7079683196136,0,-1.01299959671431,0
1.75,13.6379351242893,0,-9386.6822194336,15.1990135012053,0,-3.7221187740117,0,-0.970789426145667,0,0,-64.1019190431847,0,1,9.98681368748892,0,12.0468971917692,0,-0.970789426145667,0
1.8,14.1381022203201,0,-9386.07119748004,15.3382709258398,0,-4.32692035876762,0,-0.919738783309668,0,0,-66.8119936501055,0,1,10.0168186383899,0,12.3954886612503,0,-0.919738783309668,0
1.85,14.6393115247505,0,-9385.44253264195,15.4685585962885,0,-4.89060105630079,0,-0.86003091266911,0,0,-69.3633576212082,0,1,10.0285344806234,0,12.7523636989246,0,-0.86003091266911,0
1.9,15.1406582466514,0,-9384.79584913429,15.5966136006875,0,-5.40586221331232,0,-0.791994658080769,0,0,-71.7316456849527,0,1,10.0224396269523,0,13.1159599725893,0,-0.791994658080769,0
1.95,15.6412756452797,0,-9384.13085284315,15.7293867858135,0,-5.86617507309152,0,-0.716106962138907,0,0,-73.8936466514211,0,1,9.99958349233137,0,13.4845818854638,0,-0.716106962138907,0
2,16.1403642601966,0,-9383.44733664811,15.873701589359,0,-6.26582824685248,0,-0.632991326403628,0,0,-75.8277264423095,0,1,9.96161008121875,0,13.8564544655852,0,-0.632991326403628,0
2.05,16.6372217623464,0,-9382.74518305205,16.0359147437227,0,-6.59993311799826,0,-0.543412319907556,0,0,-77.5142409978207,0,1,9.91075900915867,0,14.2297763402091,0,-0.543412319907556,0
2.1,17.1312722794608,0,-9382.02436429088,16.2215978608037,0,-6.86439916161744,0,-0.448266472395573,0,0,-78.9359281679545,0,1,9.84984351613954,0,14.6027667144007,0,-0.448266472395573,0
2.15,17.6220940697982,0,-9381.28494034567,16.43525637737,0,-7.05589499349283,0,-0.348570076313262,0,0,-80.0782689464945,0,1,9.78220670981134,0,14.973701554245,0,-0.348570076313262,0
2.2,18.1094445160936,0,-9380.52705549978,16.6800991109545,0,-7.17181255363484,0,-0.245444520909826,0,0,-80.9298100725579,0,1,9.71165864493508,0,15.3409350438622,0,-0.245444520909826,0
2.25,18.5932815657372,0,-9379.75093424825,16.9578683950421,0,-7.21025096971641,0,-0.140099781307922,0,0,-81.4824418335574,0,1,9.64239770258258,0,15.7029037472403,0,-0.140099781307922,0
2.3,19.073780925179,0,-9378.95687745335,17.2687379051548,0,-7.17003344751104,0,-0.0338165903883737,0,0,-81.7316265723712,0,1,9.57891998206786,0,16.0581126055492,0,-0.0338165903883737,0
2.35,19.5513484960707,0,-9378.14525963767,17.6112830438183,0,-7.05076536955579,0,0.0720723470375206,0,0,-81.6765746865782,0,1,9.52592008455006,0,16.4051037573304,0,0.0720723470375206,0
2.4,20.0266276915607,0,-9377.31652821024,17.9825269914542,0,-6.85293520235886,0,0.176201946972887,0,0,-81.3203656436451,0,1,9.48818588784228,0,16.7424110104804,0,0.176201946972887,0
2.45,20.5005013765089,0,-9376.47120523691,18.3780638502725,0,-6.57805248634347,0,0.27719520421514,0,0,-80.6700116636185,0,1,9.47048891187081,0,17.0685044795352,0,0.27719520421514,0
2.5,20.9740882308239,0,-9375.60989210336,18.7922581567444,0,-6.22880986124713,0,0.373684742161875,0,0,-79.7364612983122,0,1,9.47747092461706,0,17.3817313231547,0,0.373684742161875,0
2.55,21.4487333500868,0,-9374.73327709445,19.2185168789332,0,-5.80924957616841,0,0.464335770742049,0,0,-78.5345393356442,0,1,9.51352681219517,0,17.6802595924861,0,0.464335770742049,0
2.6,21.9259928943057,0,-9373.84214554444,19.6496255116493,0,-5.32491010447458,0,0.547870750143737,0,0,-77.0828185497917,0,1,9.58268366467782,0,17.9620328513093,0,0.547870750143737,0
2.65,22.4076126058818,0,-9372.93739182424,20.0781340651862,0,-4.78292617513786,0,0.623095913328922,0,0,-75.403418141334,0,1,9.68847665872226,0,18.2247433553893,0,0.623095913328922,0
2.7,22.8955000779753,0,-9372.02003205257,20.496772118441,0,-4.19205646745812,0,0.688929527951115,0,0,-73.5217236343057,0,1,9.83382367586288,0,18.4658310566759,0,0.688929527951115,0
2.75,23.3916907984481,0,-9371.09121608372,20.8988656689536,0,-3.56261782780779,0,0.744431396375565,0,0,-71.4660238640031,0,1,10.0209025580028,0,18.6825143907076,0,0.744431396375565,0
2.8,23.898308246142,0,-9370.15223707774,21.2787236248342,0,-2.90631309959205,0,0.788832641434398,0,0,-69.2670627617803,0,1,10.2510371799531,0,18.8718566036878,0,0.788832641434398,0
2.85,24.4175186806824,0,-9369.2045368454,21.6319599207069,0,-2.23595080841068,0,0.821564367460287,0,0,-66.957507034796,0,1,10.5246006697075,0,19.0308682611144,0,0.821564367460287,0
2.9,24.9514817245342,0,-9368.24970522244,21.9557196168038,0,-1.56506762137501,0,0.842283399600016,0,0,-64.5713354600776,0,1,10.8409455854677,0,19.1566426955275,0,0.842283399600016,0
2.95,25.5022983390766,0,-9367.28947199645,22.2487845177825,0,-0.907476764292767,0,0.850893073167747,0,0,-62.1431610378506,0,1,11.19837111617,0,19.246516852173,0,0.850893073167747,0
3,26.0719582727421,0,-9366.3256903923,22.5115454314505,0,-0.276775294461094,0,0.847557041244836,0,0,-59.707503125321,0,1,11.5941359949719,0,19.2982458478997,0,0.847557041244836,0
3.05,26.6622894221816,0,-9365.36031179342,22.74584274779,0,0.314151559037841,0,0.832704335147442,0,0,-57.2980321769531,0,1,12.0245226664328,0,19.310176284894,0,0.832704335147442,0
3.1,27.2749117128533,0,-9364.39535217403,22.954692303447,0,0.85359092374257,0,0.80702444529645,0,0,-54.9468140702198,0,1,12.4849535740829,0,19.2814016727005,0,0.80702444529645,0
3.15,27.9111980116806,0,-9363.43285154883,23.1419269138648,0,1.33139516843734,0,0.771451933615161,0,0,-52.6835835011152,0,1,12.9701548794148,0,19.2118837385924,0,0.771451933615161,0
3.2,28.5722442100321,0,-9362.47482849914,23.3117931925716,0,1.73928437036656,0,0.727140941235473,0,0,-50.5350761243867,0,1,13.4743574242501,0,19.1025261150924,0,0.727140941235473,0
3.25,29.2588499888463,0,-9361.52323239993,23.4685468649128,0,2.07104744673994,0,0.67543078939948,0,0,-48.5244468567202,0,1,13.9915203298522,0,18.955191593244,0,0.67543078939948,0
3.3,29.9715109758436,0,-9360.57989626672,23.6160874124016,0,2.32264262653182,0,0.617804561601308,0,0,-46.6707972937652,0,1,14.5155601401346,0,18.7726601007666,0,0.617804561601308,0
3.35,30.710422137477,0,-9359.64649312642,23.7576653866863,0,2.49220720192643,0,0.555843006365264,0,0,-44.9888290721916,0,1,15.0405683202599,0,18.5585308137978,0,0.555843006365264,0
3.4,31.4754914359853,0,-9358.72449850294,23.8956847640451,0,2.5799921480777,0,0.491176268057104,0,0,-43.4886329971157,0,1,15.5610021662145,0,18.3170773162594,0,0.491176268057104,0
3.45,32.2663621302656,0,-9357.81516105644,24.0316102674028,0,2.58823894761086,0,0.425435849166413,0,0,-42.175616661434,0,1,16.0718382423552,0,18.0530686700582,0,0.425435849166413,0
3.5,33.0824416790628,0,-9356.91948271411,24.1659775283089,0,2.52101442247189,0,0.360208889863525,0,0,-41.0505668116907,0,1,16.5686825058437,0,17.771571220283,0,0.360208889863525,0
3.55,33.9229350419643,0,-9356.03820888205,24.298493709897,0,2.38401577863043,0,0.296996405094343,0,0,-40.1098373582557,0,1,17.0478363741329,0,17.4777459291367,0,0.296996405094343,0
3.6,34.7868802497729,0,-9355.17182862418,24.4282086053636,0,2.18435382462485,0,0.237176636424499,0,0,-39.3456499213253,0,1,17.506322344606,0,17.1766543676311,0,0.237176636424499,0
3.65,35.673184379253,0,-9354.3205841024,24.5537315852578,0,1.93031868015166,0,0.181974230656095,0,0,-38.7464911427196,0,1,17.9418758547341,0,16.8730837661981,0,0.181974230656095,0
3.7,36.5806584478165,0,-9353.48448813096,24.6734680329394,0,1.63113007561211,0,0.132435598168659,0,0,-38.2975894918532,0,1,18.3529116689361,0,16.571398352833,0,0.132435598168659,0
3.75,37.5080501683514,0,-9352.66334841486,24.785849797988,0,1.29667386816076,0,0.0894105487635775,0,0,-37.9814536733593,0,1,18.7384732767222,0,16.2754211185567,0,0.0894105487635775,0
3.8,38.4540739096788,0,-9351.85679690364,24.8895373123897,0,0.937227486309685,0,0.0535401428907618,0,0,-37.7784547129555,0,1,19.0981728733846,0,15.9883475032366,0,0.0535401428907618,0
3.85,39.4174375480405,0,-9351.06432267091,24.983575885191,0,0.56317912334843,0,0.0252506051904081,0,0,-37.6674341189985,0,1,19.4321278620465,0,15.7126904599164,0,0.0252506051904081,0
3.9,40.3968661438819,0,-9350.28530679447,25.0674947846337,0,0.184747904908902,0,0.00475309166004251,0,0,-37.6263210398702,0,1,19.7408978710887,0,15.4502549431799,0,0.00475309166004251,0
3.95,41.3911225295675,0,-9349.5190578343,25.1413444287758,0,-0.18828576485881,0,-0.00795094995624029,0,0,-37.6327420071464,0,1,20.0254243791204,0,15.2021389827785,0,-0.00795094995624029,0
4,42.3990249567485,0,-9348.76484666054,25.205673676194,0,-0.546829481359035,0,-0.0130591569610407,0,0,-37.6646076947802,0,1,20.2869734462508,0,14.9687580093868,0,-0.0130591569610407,0
4.05,43.4194619467895,0,-9348.02193955791,25.2614551703761,0,-0.882697830310859,0,-0.0109527937317806,0,0,-37.7006622042974,0,1,20.5270809267405,0,14.7498888609916,0,-0.0109527937317806,0
4.1,44.4514044393262,0,-9347.28962871343,25.3099713497137,0,-1.18879272989156,0,-0.00217700869754914,0,0,-37.7209817821001,0,1,20.7474989441745,0,14.5447298166536,0,-0.00217700869754914,0
4.15,45.4939152688221,0,-9346.56725937756,25.3526766547403,0,-1.45923929380092,0,0.0125825121763699,0,0,-37.7074116383296,0,1,20.9501423192623,0,14.3519730239101,0,0.0125825121763699,0
4.2,46.5461559399866,0,-9345.85425316769,25.3910524405785,0,-1.6894744339863,0,0.032525691116785,0,0,-37.6439316695495,0,1,21.1370339601522,0,14.1698857889072,0,0.032525691116785,0
4.25,47.607390637462,0,-9345.15012715579,25.4264701897514,0,-1.87628847197519,0,0.0567661050411535,0,0,-37.5169443352254,0,1,21.3102488234995,0,13.9963973872178,0,0.0567661050411535,0
4.3,48.6769874035692,0,-9344.45450854192,25.4600761110127,0,-2.01782262743344,0,0.0843599836520067,0,0,-37.3154805959908,0,1,21.4718567846296,0,13.829188333185,0,0.0843599836520067,0
4.35,49.7544164531635,0,-9343.76714486004,25.4927065701133,0,-2.11352710554905,0,0.11433520996554,0,0,-37.0313225531085,0,1,21.6238654784308,0,13.665779409405,0,0.11433520996554,0
4.4,50.8392456635083,0,-9343.08790978671,25.5248395799402,0,-2.16408551064691,0,0.145719423798863,0,0,-36.6590440876155,0,1,21.7681647761563,0,13.5036181802205,0,0.145719423798863,0
4.45,51.9311333714333,0,-9342.41680472643,25.556583326214,0,-2.17131155556477,0,0.177566419888375,0,0,-36.1959732523982,0,1,21.9064749698127,0,13.3401611526255,0,0.177566419888375,0
4.5,53.0298187189281,0,-9341.75395642834,25.5876988882588,0,-2.13802372975469,0,0.208980152262172,0,0,-35.6420823195578,0,1,22.0403009060429,0,13.1729501569042,0,0.208980152262172,0
4.55,54.1351098996432,0,-9341.09961095186,25.6176512760923,0,-2.06790300670425,0,0.239135791382858,0,0,-34.9998131663022,0,1,22.1708942403003,0,12.9996818551081,0,0.239135791382858,0
4.6,55.2468707609114,0,-9340.45412434704,25.6456808493047,0,-1.96533807045306,0,0.267297418264728,0,0,-34.2738470705187,0,1,22.2992256910255,0,12.8182695219079,0,0.267297418264728,0
4.65,56.365006298771,0,-9339.81795045422,25.6708861805183,0,-1.83526210739102,0,0.292832071736525,0,0,-33.470828987305,0,1,22.4259687014257,0,12.6268963763321,0,0.292832071736525,0
4.7,57.4894476392075,0,-9339.19162626248,25.6923094332108,0,-1.68298502785342,0,0.315219987038889,0,0,-32.5990570135318,0,1,22.5514953122163,0,12.4240597953694,0,0.315219987038889,0
4.75,58.6201371221597,0,-9338.57575529899,25.7090162075585,0,-1.51402503505556,0,0.334060975533345,0,0,-31.6681480488977,0,1,22.6758843657596,0,12.2086057515992,0,0.334060975533345,0
4.8,59.7570140931749,0,-9337.97098955435,25.7201633716315,0,-1.33394364993937,0,0.349076998356121,0,0,-30.6886906564735,0,1,22.798941455306,0,11.9797528372733,0,0.349076998356121,0
4.85,60.9000019611496,0,-9337.37801047893,25.7250504015059,0,-1.1481884900982,0,0.360111083950501,0,0,-29.6718958341229,0,1,22.9202293569537,0,11.7371053157688,0,0.360111083950501,0
4.9,62.0489970021801,0,-9336.79750960942,25.7231519489114,0,-0.961948147551472,0,0.367122832255862,0,0,-28.6292558447032,0,1,23.0391070886393,0,11.4806548151042,0,0.367122832255862,0
4.95,63.2038592845408,0,-9336.23016939747,25.7141314924554,0,-0.780023305156752,0,0.370180836717919,0,0,-27.5722204295715,0,1,23.1547752770574,0,11.2107705639194,0,0.370180836717919,0
5,64.3644059656902,0,-9335.67664480778,25.6978377925449,0,-0.60671772200265,0,0.369452436793866,0,0,-26.5118986623612,0,1,23.2663252179343,0,10.9281784602674,0,0.369452436793866,0
5.05,65.5304070780506,0,-9335.1375462271,25.6742872965946,0,-0.445751914438295,0,0.365191284012355,0,0,-25.4587934137059,0,1,23.3727889119669,0,10.6339297267727,0,0.365191284012355,0
5.1,66.7015837859958,0,-9334.613424176,25.6436365321167,0,-0.300201327454486,0,0.357723258758739,0,0,-24.4225739317305,0,1,23.4731874547579,0,10.3293603936599,0,0.357723258758739,0
5.15,67.8776089717141,0,-9334.10475624115,25.6061488557066,0,-0.172459634520079,0,0.347431307898232,0,0,-23.4118904515317,0,1,23.5665754411247,0,10.0160433068113,0,0.347431307898232,0
5.2,69.0581099009724,0,-9333.61193655166,25.5621597395391,0,-0.064226640534409,0,0.334739781601667,0,0,-22.4342330956699,0,1,23.6520794800314,0,9.6957347262262,0,0.334739781601667,0
5.25,70.2426726378393,0,-9333.13526801293,25.5120441732058,0,0.0234807981992936,0,0.32009882994488,0,0,-21.4958356901185,0,1,23.7289294585189,0,9.370317817242,0,0.32009882994488,0
5.3,71.4308478240576,0,-9332.67495739408,25.456188872715,0,0.0902972970436372,0,0.303969377156,0,0,-20.6016235697607,0,1,23.7964817849264,0,9.04174541694569,0,0.303969377156,0
5.35,72.6221574150227,0,-9332.23111324671,25.3949709683597,0,0.136460006750597,0,0.286809127268768,0,0,-19.755203051223,0,1,23.8542344257223,0,8.71198437670542,0,0.286809127268768,0
5.4,73.8161019685034,0,-9331.80374652338,25.3287438286265,0,0.16274570218812,0,0.269059974674719,0,0,-18.9588890627608,0,1,23.9018340750911,0,8.38296355393382,0,0.269059974674719,0
5.45,75.0121681103417,0,-9331.39277366842,25.2578297829147,0,0.170397531462074,0,0.251137102918555,0,0,-18.2137664784704,0,1,23.9390762230372,0,8.05652718291435,0,0.251137102918555,0
5.5,76.2098358478239,0,-9330.99802187745,25.1825188107459,0,0.161045011280535,0,0.233419961472259,0,0,-17.5197800263683,0,1,23.9658991929083,0,7.73439493590706,0,0.233419961472259,0
5.55,77.4085854599133,0,-9330.61923616776,25.1030718099094,0,0.136620649048497,0,0.21624521900488,0,0,-16.8758472281696,0,1,23.982373395995,0,7.41812953447713,0,0.21624521900488,0
5.6,78.6079037577923,0,-9330.25608786988,25.0197268451065,0,0.0992762566138914,0,0.19990170760128,0,0,-16.2799886689405,0,1,23.9886871068378,0,7.10911232638103,0,0.19990170760128,0
5.65,79.8072895735682,0,-9329.90818414014,24.9327067874025,0,0.0513016352183074,0,0.184627298892652,0,0,-15.7294699614777,0,1,23.9851300165702,0,6.80852683717918,0,0.184627298892652,0
5.7,81.0062583950367,0,-9329.57507810275,24.8422269382935,0,-0.0049521116719824,0,0.17060759218878,0,0,-15.2209500297331,0,1,23.9720756980857,0,6.51734996009377,0,0.17060759218878,0
5.75,82.2043461169062,0,-9329.25627925366,24.7485015349673,0,-0.0671428175027956,0,0.157976247264831,0,0,-14.7506307502853,0,1,23.9499639432748,0,6.23635017458601,0,0.157976247264831,0
5.8,83.4011119219986,0,-9328.95126379419,24.6517483979513,0,-0.132999656923741,0,0.14681676029498,0,0,-14.3144035222856,0,1,23.9192837348444,0,5.96609198694129,0,0.14681676029498,0
5.85,84.5961403390409,0,-9328.65948460649,24.5521913563423,0,-0.200376746680032,0,0.137165459686389,0,0,-13.9079889475411,0,1,23.8805574151616,0,5.70694566122991,0,0.137165459686389,0
5.9,85.7890425470435,0,-9328.38038063063,24.4500604265425,0,-0.267297368763205,0,0.129015487960846,0,0,-13.5270664596183,0,1,23.8343264286402,0,5.4591012481861,0,0.129015487960846,0
5.95,86.9794570109425,0,-9328.11338545383,24.3455899975801,0,-0.331988604204676,0,0.122321534845482,0,0,-13.1673914143064,0,1,23.7811388531615,0,5.222585912194,0,0.122321534845482,0
6,88.1670495405563,0,-9327.85793497105,24.2390154724854,0,-0.392906490546102,0,0.117005093783992,0,0,-12.8248978181691,0,1,23.7215388053465,0,4.99728359132652,0,0.117005093783992,0
6.05,89.3515128665344,0,-9327.61347402315,24.1305689257582,0,-0.448752096859284,0,0.112960027604569,0,0,-12.4957855064662,0,1,23.6560577052341,0,4.78295609135573,0,0.112960027604569,0
6.1,90.5325658243922,0,-9327.37946196165,24.0204743668228,0,-0.49847914273175,0,0.110058247595879,0,0,-12.1765911700508,0,1,23.5852073159191,0,4.5792648021323,0,0.110058247595879,0
6.15,91.7099522322798,0,-9327.15537712713,23.9089431610634,0,-0.541293969174992,0,0.108155332366292,0,0,-11.864243160636,0,1,23.5094744287814,0,4.38579232551002,0,0.108155332366292,0
6.2,92.8834395409735,0,-9326.94072026126,23.7961700707003,0,-0.576648799426035,0,0.107095937329137,0,0,-11.5561004665976,0,1,23.4293170399404,0,4.20206341141264,0,0.107095937329137,0
6.25,94.0528173265457,0,-9326.73501689985,23.6823302563024,0,-0.604229307897146,0,0.106718871327604,0,0,-11.2499766421754,0,1,23.3451618532018,0,4.02756470747672,0,0.106718871327604,0
6.3,95.2178956878917,0,-9326.53781881636,23.5675774444944,0,-0.623937550030897,0,0.106861742780554,0,0,-10.9441497895848,0,1,23.2574029442322,0,3.86176293397152,0,0.106861742780554,0
6.35,96.3785036031432,0,-9326.3487046023,23.4520433344002,0,-0.63587130019961,0,0.107365102931521,0,0,-10.6373599368617,0,1,23.1664014260104,0,3.70412119644425,0,0.107365102931521,0
6.4,97.5344872911982,0,-9326.16727948268,23.3358381971167,0,-0.64030080581855,0,0.108076037605469,0,0,-10.3287953272041,0,1,23.0724859637905,0,3.55411324167261,0,0.108076037605469,0
6.45,98.6857086172387,0,-9325.99317447264,23.2190525275471,0,-0.637643900745158,0,0.108851180765142,0,0,-10.0180692429261,0,1,22.9759539968771,0,3.41123554662234,0,0.108851180765142,0
6.5,99.8320435741925,0,-9325.82604498467,23.1017595408079,0,-0.628440336895721,0,0.109559142709577,0,0,-9.7051890350556,0,1,22.8770735333305,0,3.27501720437274,0,0.109559142709577,0
6.55,100.973380865612,0,-9325.66556899607,22.9840182671145,0,-0.613326096306374,0,0.110082362716958,0,0,-9.39051902518563,0,1,22.7760853918864,0,3.14502763500792,0,0.110082362716958,0
6.6,102.109620609348,0,-9325.51144488375,22.8658769876463,0,-0.593008342180584,0,0.110318410180698,0,0,-9.0747388970493,0,1,22.6732057729401,0,3.02088220326191,0,0.110318410180698,0
6.65,103.240673175667,0,-9325.36338902785,22.7473767653738,0,-0.568241561360844,0,0.110180769813735,0,0,-8.75879910924375,0,1,22.5686290477866,0,2.90224586851804,0,0.110180769813735,0
6.7,104.366458168124,0,-9325.22113327883,22.6285548539531,0,-0.539805345690613,0,0.109599155386244,0,0,-8.44387474526673,0,1,22.4625306628928,0,2.78883502706813,0,0.109599155386244,0
6.75,105.486903550517,0,-9325.08442237375,22.5094478087843,0,-0.508484158549118,0,0.108519402871181,0,0,-8.13131907989805,0,1,22.355070064263,0,2.6804177319534,0,0.108519402871181,0
6.8,106.601944918768,0,-9324.95301137801,22.3900941715686,0,-0.475049337367514,0,0.106902998004482,0,0,-7.82261798877845,0,1,22.246393556279,0,2.57681249294351,0,0.106902998004482,0
6.85,107.711524912507,0,-9324.82666321811,22.2705366481553,0,-0.44024349452844,0,0.104726295358063,0,0,-7.51934616700305,0,1,22.1366370199129,0,2.47788586902724,0,0.104726295358063,0
6.9,108.815592757721,0,-9324.70514636047,22.1508237450428,0,-0.404767398660231,0,0.101979486325811,0,0,-7.22312595814376,0,1,22.025928426896,0,2.38354906897764,0,0.101979486325811,0
6.95,109.91410392891,0,-9324.58823268063,22.0310108695648,0,-0.36926934661553,0,0.0986653721931756,0,0,-6.93558943210164,0,1,21.9143900990756,0,2.29375377291717,0,0.0986653721931756,0
7,111.007019917045,0,-9324.47569555647,21.9111609306346,0,-0.334336973805585,0,0.0947979959543415,0,0,-6.6583441925892,0,1,21.802140675446,0,2.20848738015026,0,0.0947979959543415,0
7.05,112.094308088037,0,-9324.3673082094,21.7913445000581,0,-0.300491397298308,0,0.0904011830038757,0,0,-6.39294324615514,0,1,21.6892967627616,0,2.12776787665369,0,0.0904011830038757,0
7.1,113.175941615573,0,-9324.26284230785,21.6716396088652,0,-0.268183542262514,0,0.0855070364969769,0,0,-6.14085912710425,0,1,21.5759742587186,0,2.05163850031847,0,0.0855070364969769,0
7.15,114.251899471925,0,-9324.16206683926,21.5521312595458,0,-0.237792467861632,0,0.0801544282641665,0,0,-5.90346234839275,0,1,21.4622893489542,0,1.98016236410774,0,0.0801544282641665,0
7.2,115.322166460697,0,-9324.06474724893,21.4329107346985,0,-0.209625483296935,0,0.074387520886458,0,0,-5.68200413894626,0,1,21.3483591901024,0,1.91341717750587,0,0.074387520886458,0
7.25,116.386733276302,0,-9323.97064483786,21.31407477688,0,-0.183919827921073,0,0.0682543510715562,0,0,-5.47760333364909,0,1,21.2343023005161,0,1.85149018572371,0,0.0682543510715562,0
7.3,117.445596576267,0,-9323.87951640606,21.1957247049387,0,-0.160845680563052,0,0.0618054989868185,0,0,-5.2912372037763,0,1,21.1202386877662,0,1.79447342479349,0,0.0618054989868185,0
7.35,118.498759054042,0,-9323.79111412356,21.0779655203629,0,-0.140510261649072,0,0.0550928628459693,0,0,-5.12373595272809,0,1,21.0062897475167,0,1.74245936957252,0,0.0550928628459693,0
7.4,119.546229501825,0,-9323.705185608,20.9609050445163,0,-0.122962796472527,0,0.0481685529372946,0,0,-4.97578055403443,0,1,20.8925779718514,0,1.69553703134318,0,0.0481685529372946,0
7.45,120.588022854867,0,-9323.62147418527,20.8446531152073,0,-0.108200118080651,0,0.0410839145219117,0,0,-4.84790357486372,0,1,20.7792265066617,0,1.65378854262656,0,0.0410839145219117,0
7.5,121.624160210692,0,-9323.53971930827,20.7293208596858,0,-0.09617270268475,0,0.0338886846994698,0,0,-4.74049260757135,0,1,20.6663585974899,0,1.61728624940194,0,0.0338886846994698,0
7.55,122.654668818614,0,-9323.45965710823,20.6150200514708,0,-0.0867909482464487,0,0.0266302844905483,0,0,-4.65379592285312,0,1,20.5540969614954,0,1.58609031542566,0,0.0266302844905483,0
7.6,123.679582036734,0,-9323.38102105321,20.5018625506872,0,-0.0799315269641383,0,0.0193532440539884,0,0,-4.58792995938668,0,1,20.4425631202619,0,1.56024682995439,0,0.0193532440539884,0
7.65,124.698939255251,0,-9323.30354268898,20.389959821936,0,-0.0754436638722458,0,0.0120987561575635,0,0,-4.54288827494486,0,1,20.3318767242988,0,1.53978639898541,0,0.0120987561575635,0
7.7,125.712785786347,0,-9323.22695243889,20.2794225200464,0,-0.0731552158556954,0,0.00490435074842854,0,0,-4.51855160132844,0,1,20.2221548956237,0,1.52472319113161,0,0.00490435074842854,0
7.75,126.721172722116,0,-9323.15098044073,20.1703601321474,0,-0.0728784473669715,0,-0.00219631829263321,0,0,-4.51469866860163,0,1,20.1135116100209,0,1.51505440237807,0,-0.00219631829263321,0
7.8,127.724156762958,0,-9323.07535740082,20.0628806640563,0,-0.0744154204249064,0,-0.00917358441252393,0,0,-4.53101749160446,0,1,20.0060571357269,0,1.51076009908656,0,-0.00917358441252393,0
7.85,128.721800019572,0,-9322.99981544732,19.9570903596717,0,-0.0775629366023391,0,-0.0160017887062061,0,0,-4.56711684224344,0,1,19.8998975406019,0,1.51180339554621,0,-0.0160017887062061,0
7.9,129.714169792194,0,-9322.92408896727,19.8530934435378,0,-0.082116987317831,0,-0.0226592207909347,0,0,-4.6225376634337,0,1,19.7951342754843,0,1.51813092090196,0,-0.0226592207909347,0
7.95,130.701338330994,0,-9322.84791541401,19.7509918787026,0,-0.0878766855840789,0,-0.0291279918379309,0,0,-4.69676421372717,0,1,19.6918638375203,0,1.52967353020324,0,-0.0291279918379309,0
8,131.683382581652,0,-9322.77103607385,19.650885134139,0,-0.0946476672768014,0,-0.0353938511833782,0,0,-4.78923476470608,0,1,19.5901775138861,0,1.54634721536901,0,-0.0353938511833782,0
8.05,132.660383920083,0,-9322.69319678308,19.5528699581227,0,-0.102244962899333,0,-0.0414459575201302,0,0,-4.89935170539099,0,1,19.4901612035305,0,1.5680541738378,0,-0.0414459575201302,0
8.1,133.632427880114,0,-9322.61414858843,19.4570401558816,0,-0.110495351726062,0,-0.0472766150620398,0,0,-5.0264909385956,0,1,19.3918953123549,0,1.5946839953459,0,-0.0472766150620398,0
8.15,134.599603877626,0,-9322.53364834601,19.3634863714569,0,-0.119239219165132,0,-0.0528809843209724,0,0,-5.17001048288309,0,1,19.295454715604,0,1.62611493045832,0,-0.0528809843209724,0
8.2,135.562004934341,0,-9322.4514592555,19.2722958749595,0,-0.128331945284942,0,-0.0582567762849269,0,0,-5.32925822019458,0,1,19.20090878012,0,1.6622152079894,0,-0.0582567762849269,0
8.25,136.51972740406,0,-9322.36735132782,19.1835523572734,0,-0.1376448578311,0,-0.0634039378721757,0,0,-5.50357875309978,0,1,19.1083214384571,0,1.70284437214254,0,-0.0634039378721757,0
8.3,137.472870703725,0,-9322.28110178599,19.0973357347475,0,-0.147065786875207,0,-0.0683243355938907,0,0,-5.69231935683302,0,1,19.0177513066043,0,1.74785461394264,0,-0.0683243355938907,0
8.35,138.421537051289,0,-9322.19249540005,19.0137219665745,0,-0.156499260653776,0,-0.0730214434142688,0,0,-5.89483502978393,0,1,18.9292518371418,0,1.79709207522714,0,-0.0730214434142688,0
8.4,139.365831211967,0,-9322.10132475784,18.9327828874419,0,-0.165866383351687,0,-0.0775000398756413,0,0,-6.1104926619421,0,1,18.8428715000044,0,1.85039810701903,0,-0.0775000398756413,0
8.45,140.305860254059,0,-9322.00739047431,18.8545860577082,0,-0.175104435737843,0,-0.0817659186747182,0,0,-6.33867435403791,0,1,18.7586539835713,0,1.90761046746566,0,-0.0817659186747182,0
8.5,141.241733315198,0,-9321.91050134271,18.7791946328834,0,-0.1841662388453,0,-0.0858256160488537,0,0,-6.57877993091571,0,1,18.6766384094866,0,1.9685644476462,0,-0.0858256160488537,0
8.55,142.173561379563,0,-9321.81047443144,18.706667253632,0,-0.193019319469874,0,-0.0896861575679855,0,0,-6.83022870118812,0,1,18.59685955539,0,2.0330939163981,0,-0.0896861575679855,0
8.6,143.101457066314,0,-9321.7071351309,18.6370579569264,0,-0.201644914294976,0,-0.0933548262351476,0,0,-7.09246052164683,0,1,18.5193480805515,0,2.10103227787414,0,-0.0933548262351476,0
8.65,144.025534429296,0,-9321.60031715462,18.570416108409,0,-0.210036847077307,0,-0.0968389531796433,0,0,-7.36493622945254,0,1,18.4441307502313,0,2.1722133378094,0,-0.0968389531796433,0
8.7,144.945908767859,0,-9321.48986249954,18.5067863554954,0,-0.218200310674644,0,-0.100145731682992,0,0,-7.64713750800817,0,1,18.3712306553815,0,2.24647207645623,0,-0.100145731682992,0
8.75,145.862696448486,0,-9321.37562136985,18.4462086003151,0,-0.226150582873796,0,-0.103282054807447,0,0,-7.93856625384907,0,1,18.3006674250656,0,2.32364532784455,0,-0.103282054807447,0
8.8,146.776014736821,0,-9321.25745206929,18.388717991229,0,-0.233911702079078,0,-0.106254376497388,0,0,-8.23874351206789,0,1,18.232457429664,0,2.4035723664597,0,-0.106254376497388,0
8.85,147.685981639596,0,-9321.13522086634,18.3343449314166,0,-0.241515126028494,0,-0.1090685956911,0,0,-8.54720804692855,0,1,18.1666139735606,0,2.48609540361877,0,-0.1090685956911,0
8.9,148.592715755919,0,-9321.00880183679,18.2831151028677,0,-0.248998393881045,0,-0.111729962709323,0,0,-8.86351461259602,0,1,18.1031474765513,0,2.57105999679134,0,-0.111729962709323,0
8.95,149.496336137334,0,-9320.87807668793,18.2350495040548,0,-0.256403809314698,0,-0.114243006971871,0,0,-9.18723198648653,0,1,18.0420656436884,0,2.6583153758722,0,-0.114243006971871,0
9,150.396962156094,0,-9320.74293456843,18.190164499573,0,-0.263777159728772,0,-0.116611484928542,0,0,-9.51794082477721,0,1,17.9833736236669,0,2.74771469099726,0,-0.116611484928542,0
9.05,151.29471338107,0,-9320.60327186769,18.148471880121,0,-0.271166484283458,0,-0.118838346969428,0,0,-9.85523139624024,0,1,17.927074156179,0,2.83911518691983,0,-0.118838346969428,0
9.1,152.189709460768,0,-9320.45899200812,18.1099789313222,0,-0.278620901349663,0,-0.120925721996465,0,0,-10.1987012469011,0,1,17.8731677089151,0,2.93237830925671,0,-0.120925721996465,0
9.15,153.082070012955,0,-9320.31000523383,18.0746885100528,0,-0.286189503992537,0,-0.122874918286856,0,0,-10.5479528441643,0,1,17.8216526050748,0,3.02736974809173,0,-0.122874918286856,0
9.2,153.971914520441,0,-9320.15622839849,18.0425991271234,0,-0.293920330372872,0,-0.124686439254294,0,0,-10.9025912450855,0,1,17.772525142385,0,3.12395942450817,0,-0.124686439254294,0
9.25,154.859362232625,0,-9319.99758475516,18.0137050353483,0,-0.301859414417138,0,-0.126360012710657,0,0,-11.2622218294663,0,1,17.7257797046954,0,3.22202142562904,0,-0.126360012710657,0
9.3,155.744532072457,0,-9319.83400375066,17.9879963222155,0,-0.310049920769481,0,-0.127894632244324,0,0,-11.6264481344609,0,1,17.6814088672609,0,3.32143389369042,0,-0.127894632244324,0
9.35,156.627542548533,0,-9319.66542082637,17.9654590065297,0,-0.31853136688431,0,-0.129288609357388,0,0,-11.9948698234533,0,1,17.6394034968077,0,3.42207887457295,0,-0.129288609357388,0
9.4,157.508511672073,0,-9319.49177722763,17.9460751385389,0,-0.327338934130092,0,-0.130539635039141,0,0,-12.367080818124,0,1,17.5997528474434,0,3.52384213108171,0,-0.130539635039141,0
9.45,158.387556878628,0,-9319.31301982317,17.9298229031605,0,-0.336502868935849,0,-0.13164484949425,0,0,-12.7426676188934,0,1,17.5624446533991,0,3.62661292610531,0,-0.13164484949425,0
9.5,159.264794954354,0,-9319.12910093607,17.9166767259989,0,-0.346047974302776,0,-0.132600918788302,0,0,-13.1212078353191,0,1,17.5274652194945,0,3.73028378061,0,-0.132600918788302,0
9.55,160.140341966766,0,-9318.93997818735,17.9066073818856,0,-0.355993191405004,0,-0.133404117218891,0,0,-13.502268944547,0,1,17.4947995101035,0,3.8347502112405,0,-0.133404117218891,0
9.6,161.014313199925,0,-9318.74561435308,17.8995821056884,0,-0.366351270496738,0,-0.13405041426548,0,0,-13.8854072925652,0,1,17.4644312372611,0,3.93991045211104,0,-0.13405041426548,0
9.65,161.886823094015,0,-9318.5459772357,17.895564705119,0,-0.377128529909128,0,-0.134535565014577,0,0,-14.2701673497871,0,1,17.4363429484052,0,4.04566516518267,0,-0.134535565014577,0
9.7,162.757985189302,0,-9318.34103955002,17.8945156752308,0,-0.388324701541799,0,-0.134855202997733,0,0,-14.6560812293882,0,1,17.4105161140887,0,4.15191714343708,0,-0.134855202997733,0
9.75,163.627912074492,0,-9318.13077882419,17.8963923142464,0,-0.399932860914506,0,-0.135004934417811,0,0,-15.0426684738336,0,1,17.3869312158293,0,4.25857101087644,0,-0.135004934417811,0
9.8,164.49671533947,0,-9317.91517731562,17.9011488402907,0,-0.411939439529348,0,-0.134980432774007,0,0,-15.4294361121465,0,1,17.3655678340942,0,4.36553292320132,0,-0.134980432774007,0
9.85,165.364505532456,0,-9317.69422194182,17.9087365085413,0,-0.424324316990199,0,-0.134777532928206,0,0,-15.8158789876822,0,1,17.3464047362421,0,4.47271027284645,0,-0.134777532928206,0
9.9,166.231392121531,0,-9317.46790422575,17.9191037282455,0,-0.437060990022651,0,-0.134392323685056,0,0,-16.2014803534716,0,1,17.3294199640738,0,4.58001140188351,0,-0.134392323685056,0
9.95,167.097483460538,0,-9317.23622025529,17.932196179007,0,-0.450116815225681,0,-0.133821237986098,0,0,-16.5857127295804,0,1,17.3145909204732,0,4.68734532613159,0,-0.133821237986098,0
10,167.96288675927,0,-9316.99917065618,17.9479569257104,0,-0.463453322058825,0,-0.133061139845405,0,0,-16.9680390143935,0,1,17.3018944544618,0,4.79462147364607,0,-0.133061139845405,0
10.05,168.827708057848,0,-9316.75676057759,17.9663265314468,0,-0.477026592221091,0,-0.132109407181274,0,0,-17.3479138392711,0,1,17.2913069438373,0,4.90174944058339,0,-0.132109407181274,0
10.1,169.692052205165,0,-9316.50899968938,17.9872431678182,0,-0.490787701207946,0,-0.130964009726747,0,0,-17.7247851536428,0,1,17.2828043744346,0,5.00863876726053,0,-0.130964009726747,0
10.15,170.556022841177,0,-9316.25590219002,18.0106427220505,0,-0.504683217440228,0,-0.129623581232234,0,0,-18.0980960253066,0,1,17.2763624149269,0,5.11519873704025,0,-0.129623581232234,0
10.2,171.419722382797,0,-9315.99748682397,18.0364589004228,0,-0.518655753945696,0,-0.128087485207349,0,0,-18.4672866384941,0,1,17.2719564859919,0,5.22133820047521,0,-0.128087485207349,0
10.25,172.283252013087,0,-9315.73377690714,18.0646233276302,0,-0.53264456714432,0,-0.126355873487534,0,0,-18.8317964701601,0,1,17.2695618225923,0,5.32696542693227,0,-0.126355873487534,0
10.3,173.146711673358,0,-9315.46480035902,18.0950656418419,0,-0.546586196848135,0,-0.124429736955087,0,0,-19.1910666229685,0,1,17.2691535280817,0,5.43198798569152,0,-0.124429736955087,0
10.35,174.010200057752,0,-9315.19058974005,18.1277135853775,0,-0.560415141143386,0,-0.122310947795011,0,0,-19.5445422916003,0,1,17.2707066188322,0,5.53631265827073,0,-0.122310947795011,0
10.4,174.873814609783,0,-9314.9111822925,18.1624930911164,0,-0.57406455938609,0,-0.120002292724349,0,0,-19.8916753373109,0,1,17.2741960581041,0,5.63984538346365,0,-0.120002292724349,0
10.45,175.737651520283,0,-9314.62661998327,18.1993283649547,0,-0.587466996122668,0,-0.117507496700318,0,0,-20.2319269441553,0,1,17.2795967779345,0,5.7424912362993,0,-0.117507496700318,0
10.5,176.601805726117,0,-9314.33694954689,18.2381419648358,0,-0.600555118356789,0,-0.114831236687977,0,0,-20.5647703289822,0,1,17.286883687922,0,5.84415444182856,0,-0.114831236687977,0
10.55,177.466370908988,0,-9314.04222252696,18.2788548770886,0,-0.613262458234574,0,-0.111979145152759,0,0,-20.8896934762216,0,1,17.2960316699151,0,5.94473842432429,0,-0.111979145152759,0
10.6,178.331439493606,0,-9313.74249531415,18.3213865910079,0,-0.625524152925947,0,-0.108957803037039,0,0,-21.2062018676597,0,1,17.3070155577888,0,6.04414589214321,0,-0.108957803037039,0
10.65,179.197102644465,0,-9313.4378291792,18.3656551727901,0,-0.637277673253403,0,-0.105774722082757,0,0,-21.5138211768528,0,1,17.3198101017021,0,6.14227895814224,0,-0.105774722082757,0
10.7,180.063450260432,0,-9313.12829029892,18.4115773400919,0,-0.648463532473953,0,-0.102438316473515,0,0,-21.812099897593,0,1,17.3343899164762,0,6.23903929517223,0,-0.102438316473515,0
10.75,180.930570966353,0,-9312.81394977361,18.4590685385944,0,-0.659025966567931,0,-0.0989578638886605,0,0,-22.1006118759306,0,1,17.3507294140112,0,6.33432832578998,0,-0.0989578638886605,0
10.8,181.798552100895,0,-9312.4948836341,18.5080430220278,0,-0.66891357744134,0,-0.0953434561876361,0,0,-22.3789587157054,0,1,17.3688027199615,0,6.42804744493814,0,-0.0953434561876361,0
10.85,182.667479699828,0,-9312.17117283695,18.5584139371348,0,-0.678079930616816,0,-0.091605940073761,0,0,-22.6467720283442,0,1,17.3885835752202,0,6.52009827394691,0,-0.091605940073761,0
10.9,183.537438474022,0,-9311.84290324614,18.6100934150199,0,-0.686484099280579,0,-0.087756848221038,0,0,-22.9037154988828,0,1,17.410045223102,0,6.6103829438145,0,-0.087756848221038,0
10.95,184.40851178148,0,-9311.51016559996,18.6629926702431,0,-0.694091146975569,0,-0.0838083214834133,0,0,-23.1494867417412,0,1,17.433160283465,0,6.69880440533065,0,-0.0838083214834133,0
11,185.280781592768,0,-9311.17305546173,18.717022108873,0,-0.700872541788457,0,-0.0797730229409913,0,0,-23.3838189217581,0,1,17.457900615359,0,6.78526676322466,0,-0.0797730229409913,0
11.05,186.154328449341,0,-9310.83167315336,18.772091446516,0,-0.706806495571669,0,-0.0756640446694974,0,0,-23.606482118335,0,1,17.4842371701288,0,6.86967563115095,0,-0.0756640446694974,0
11.1,187.029231414327,0,-9310.48612367058,18.82810983709,0,-0.711878222569528,0,-0.0714948082451702,0,0,-23.817284413266,0,1,17.5121398372156,0,6.95193850397882,0,-0.0714948082451702,0
11.15,187.905568015475,0,-9310.13651657938,18.8849860128209,0,-0.716080112775105,0,-0.0672789601144836,0,0,-24.0160726858966,0,1,17.5415772851955,0,7.03196514353312,0,-0.0672789601144836,0
11.2,188.783414180086,0,-9309.78296589274,18.9426284356137,0,-0.71941181642311,0,-0.0630302630638596,0,0,-24.2027331026471,0,1,17.5725168008405,0,7.10966797364747,0,-0.0630302630638596,0
11.25,189.662844161917,0,-9309.42558992756,19.0009454596055,0,-0.721880237212453,0,-0.0587624851160326,0,0,-24.377191291607,0,1,17.604924129194,0,7.18496248014596,0,-0.0587624851160326,0
11.3,190.543930460175,0,-9309.06451114159,19.0598455043441,0,-0.72349943313443,0,-0.0544892872543068,0,0,-24.539412196821,0,1,17.6387633178023,0,7.25776761117098,0,-0.0544892872543068,0
11.35,191.426743730896,0,-9308.6998559503,19.1192372376807,0,-0.7242904251403,0,-0.0502241114310865,0,0,-24.6893996109835,0,1,17.6739965683274,0,7.32800617312894,0,-0.0502241114310865,0
11.4,192.311352691158,0,-9308.33175452433,19.1790297671214,0,-0.724280915293188,0,-0.0459800703505202,0,0,-24.8271953894848,0,1,17.7105840987862,0,7.3956052174389,0,-0.0459800703505202,0
11.45,193.19782401673,0,-9307.96034056782,19.2391328380635,0,-0.723504917488913,0,-0.0417698405249812,0,0,-24.9528783530411,0,1,17.7484840196065,0,7.46049641324597,0,-0.0417698405249812,0
11.5,194.086222233946,0,-9307.58575107859,19.299457037065,0,-0.722002305271248,0,-0.0376055600899163,0,0,-25.066562890419,0,1,17.7876522265621,0,7.52261640130705,0,-0.0376055600899163,0
11.55,194.976609606697,0,-9307.20812609117,19.3599139980682,0,-0.719818282679902,0,-0.0334987328203478,0,0,-25.1683972769675,0,1,17.8280423134464,0,7.58190712437454,0,-0.0334987328203478,0
11.6,195.869046019612,0,-9306.82760840408,19.4204166093236,0,-0.717002785423846,0,-0.0294601397245454,0,0,-25.2585617287134,0,1,17.8696055070713,0,7.63831612959582,0,-0.0294601397245454,0
11.65,196.76358885859,0,-9306.44434329262,19.4808792186526,0,-0.713609820937467,0,-0.0254997594962652,0,0,-25.3372662155875,0,1,17.9122906268348,0,7.69179683871556,0,-0.0254997594962652,0
11.7,197.660292889965,0,-9306.05847820922,19.5412178346463,0,-0.709696757022002,0,-0.0216266989872448,0,0,-25.404748060856,0,1,17.9560440706999,0,7.74230878221162,0,-0.0216266989872448,0
11.75,198.559210139661,0,-9305.67016247292,19.6013503214215,0,-0.705323569770484,0,-0.0178491347177958,0,0,-25.4612693569566,0,1,18.0008098289711,0,7.78981779391417,0,-0.0178491347177958,0
11.8,199.460389773754,0,-9305.2795469502,19.6611965846463,0,-0.700552062294062,0,-0.0141742662774087,0,0,-25.5071142306254,0,1,18.0465295267599,0,7.8342961631453,0,-0.0141742662774087,0
11.85,200.363877981871,0,-9304.88678372938,19.7206787467002,0,-0.695445066387083,0,-0.0106082822819923,0,0,-25.5425859923755,0,1,18.0931424955018,0,7.87572274196996,0,-0.0106082822819923,0
11.9,201.269717864904,0,-9304.49202579073,19.779721309037,0,-0.690065639667894,0,-0.0071563393529861,0,0,-25.5680042070183,0,1,18.1405858733444,0,7.91408300575874,0,-0.0071563393529861,0
11.95,202.177949328442,0,-9304.09542667482,19.8382513000696,0,-0.684476270896648,0,-0.00382255436990554,0,0,-25.5837017229419,0,1,18.188794733679,0,7.94936906592123,0,-0.00382255436990554,0
12,203.088608983307,0,-9303.69714015138,19.8961984071825,0,-0.678738106090766,0,-0.000610010026137437,0,0,-25.5900216982709,0,1,18.2377022405494,0,7.98157963436368,0,-0.000610010026137437,0
12.05,204.001730054504,0,-9303.29731989117,19.9534950917825,0,-0.672910207729176,0,0.00247922650744014,0,0,-25.5873146617911,0,1,18.2872398291606,0,8.01071993994407,0,0.00247922650744014,0
12.1,204.917342299766,0,-9302.89611914323,20.0100766866242,0,-0.667048858760249,0,0.0054440722304085,0,0,-25.575935645642,0,1,18.3373374092343,0,8.03680159792766,0,0.0054440722304085,0
12.15,205.835471938798,0,-9302.49369041972,20.0658814749631,0,-0.661206922314198,0,0.00828438490954699,0,0,-25.5562414252663,0,1,18.3879235885324,0,8.05984243417197,0,0.00828438490954699,0
12.2,206.756141594125,0,-9302.09018519073,20.1208507514078,0,-0.655433266983369,0,0.0110009084684281,0,0,-25.5285878999778,0,1,18.4389259135058,0,8.07986626647621,0,0.0110009084684281,0
12.25,207.679370244341,0,-9301.68575359096,20.1749288646339,0,-0.649772266294126,0,0.0135952082051685,0,0,-25.4933276448147,0,1,18.4902711237295,0,8.09690264620117,0,0.0135952082051685,0
12.3,208.605173190341,0,-9301.28054414029,20.2280632423938,0,-0.644263379578234,0,0.0160695970449077,0,0,-25.4508076611285,0,1,18.5418854165645,0,8.11098656388635,0,0.0160695970449077,0
12.35,209.533562034979,0,-9300.8747034798,20.2802043994959,0,-0.638940819890693,0,0.0184270541810047,0,0,-25.4013673496849,0,1,18.5936947183518,0,8.1221581231463,0,0.0184270541810047,0
12.4,210.464544676353,0,-9300.4683761249,20.3313059296297,0,-0.633833312949857,0,0.0206711375791507,0,0,-25.3453367259935,0,1,18.645624958384,0,8.13046218760581,0,0.0206711375791507,0
12.45,211.3981253148,0,-9300.06170423655,20.3813244820849,0,-0.628963949332293,0,0.0228058919089087,0,0,-25.2830348932271,0,1,18.6976023419292,0,8.13594800602089,0,0.0228058919089087,0
12.5,212.334304473423,0,-9299.65482741182,20.4302197245414,0,-0.624350130378901,0,0.024835753525622,0,0,-25.2147687835131,0,1,18.749553618689,0,8.13866882102048,0,0.024835753525622,0
12.55,213.27307903187,0,-9299.24788249413,20.4779542932092,0,-0.62000360650095,0,0.0267654541510168,0,0,-25.140832173689,0,1,18.8014063432542,0,8.13868146708538,0,0.0267654541510168,0
12.6,214.214442272863,0,-9298.84100340388,20.5244937316615,0,-0.615930604854987,0,0.0285999248927797,0,0,-25.0615049768947,0,1,18.8530891243749,0,8.13604596345087,0,0.0285999248927797,0
12.65,215.158383940847,0,-9298.43432098935,20.5698064197445,0,-0.612132041722685,0,0.0303442022023836,0,0,-24.9770528067259,0,1,18.9045318601719,0,8.13082510757752,0,0.0303442022023836,0
12.7,216.104890312,0,-9298.02796289786,20.6138634939624,0,-0.608603813421814,0,0.0320033372977359,0,0,-24.8877268061886,0,1,18.9556659567821,0,8.12308407467992,0,0.0320033372977359,0
12.75,217.053944274715,0,-9297.62205346669,20.6566387607289,0,-0.605337158220115,0,0.0335823104748531,0,0,-24.79376372946,0,1,19.0064245283313,0,8.11289002854197,0,0.0335823104748531,0
12.8,218.00552541958,0,-9297.216713633,20.6981086038614,0,-0.602319080553209,0,0.0350859516034724,0,0,-24.695386260563,0,1,19.0567425765634,0,8.10031174848454,0,0.0350859516034724,0
12.85,218.959610137795,0,-9296.812060862,20.7382518876535,0,-0.599532827884031,0,0.0365188679486355,0,0,-24.5928035495614,0,1,19.1065571489016,0,8.08541927689772,0,0.0365188679486355,0
12.9,219.916171726952,0,-9296.40820909208,20.7770498568248,0,-0.596958409802117,0,0.0378853802876977,0,0,-24.4862119438596,0,1,19.1558074741769,0,8.06828359121602,0,0.0378853802876977,0
12.95,220.875180503021,0,-9296.00526869573,20.8144860345934,0,-0.594573148458226,0,0.0391894681041997,0,0,-24.3757958896732,0,1,19.2044350757057,0,8.04897630361513,0,0.0391894681041997,0
13,221.836603917433,0,-9295.60334645463,20.8505461200577,0,-0.592352249168756,0,0.0404347244411447,0,0,-24.261728976788,0,1,19.2523838618369,0,8.02756939105686,0,0.0404347244411447,0
13.05,222.800406678133,0,-9295.20254554753,20.8852178860135,0,-0.590269380004829,0,0.0416243207911617,0,0,-24.1441750983418,0,1,19.2996001944961,0,8.00413495762244,0,0.0416243207911617,0
13.1,223.766550873535,0,-9294.80296554909,20.9184910782593,0,-0.588297249396343,0,0.0427609821945469,0,0,-24.0232896965844,0,1,19.3460329366318,0,7.97874503036788,0,0.0427609821945469,0
13.15,224.734996098336,0,-9294.40470243819,20.9503573173682,0,-0.586408171219922,0,0.0438469725129038,0,0,-23.8992210653692,0,1,19.3916334798022,0,7.95147138922668,0,0.0438469725129038,0
13.2,225.705699580259,0,-9294.00784861378,20.9808100038164,0,-0.584574607484507,0,0.0448840896504703,0,0,-23.7721116805073,0,1,19.4363557534316,0,7.92238543079062,0,0.0448840896504703,0
13.25,226.678616306821,0,-9293.6124929168,21.009844227271,0,-0.582769679558021,0,0.0458736703113445,0,0,-23.6420995300328,0,1,19.4801562175007,0,7.89155806513358,0,0.0458736703113445,0
13.3,227.653699151371,0,-9293.21872065638,21.0374566807335,0,-0.580967639867914,0,0.0468166037123823,0,0,-23.5093194178562,0,1,19.52299384062,0,7.85905964422108,0,0.0468166037123823,0
13.35,228.630898997713,0,-9292.82661363895,21.0636455801278,0,-0.579144297129478,0,0.0477133535217375,0,0,-23.3739042161589,0,1,19.5648300655634,0,7.82495991988203,0,0.0477133535217375,0
13.4,229.610164862725,0,-9292.43625019872,21.088410589806,0,-0.57727738937836,0,0.0485639871644847,0,0,-23.2359860441697,0,1,19.6056287644127,0,7.7893280288201,0,0.0485639871644847,0
13.45,230.591444016528,0,-9292.04770522827,21.1117527543155,0,-0.57534690037634,0,0.0493682115315297,0,0,-23.0956973535729,0,1,19.6453561854813,0,7.75223250171805,0,0.0493682115315297,0
13.5,231.574682099845,0,-9291.66105020825,21.1336744366485,0,-0.573335316290223,0,0.0501254140474792,0,0,-22.9531719036865,0,1,19.6839808941571,0,7.71374129314794,0,0.0501254140474792,0
13.55,232.559823238282,0,-9291.27635323501,21.1541792630567,0,-0.571227820881335,0,0.0508347079980594,0,0,-22.8085456126211,0,1,19.7214737097204,0,7.67392182874533,0,0.0508347079980594,0
13.6,233.546810153397,0,-9290.89367904559,21.1732720743878,0,-0.569012428757179,0,0.0514949809881643,0,0,-22.6619572738308,0,1,19.7578076400752,0,7.63284106594109,0,0.0514949809881643,0
13.65,234.535584270493,0,-9290.51308903944,21.1909588837686,0,-0.566680057499101,0,0.0521049453971975,0,0,-22.5135491307122,0,1,19.7929578161693,0,7.5905655644678,0,0.0521049453971975,0
13.7,235.52608582315,0,-9290.13464129633,21.2072468403392,0,-0.56422454066436,0,0.0526631897179811,0,0,-22.3634673051324,0,1,19.8269014276895,0,7.54716156286893,0,0.0526631897179811,0
13.75,236.51825395461,0,-9289.75839059054,21.2221441986301,0,-0.561642584745049,0,0.0531682297075778,0,0,-22.211862078903,0,1,19.8596176614035,0,7.50269505733233,0,0.0531682297075778,0
13.8,237.512026816164,0,-9289.38438840093,21.2356602930777,0,-0.558933674130493,0,0.053618558340866,0,0,-22.0588880302008,0,1,19.8910876432847,0,7.4572318793397,0,0.053618558340866,0
13.85,238.507341662763,0,-9289.0126829174,21.2478055170838,0,-0.556099928948473,0,0.0540126936382302,0,0,-21.9047040297161,0,1,19.9212943853149,0,7.41083776886352,0,0.0540126936382302,0
13.9,239.5041349461,0,-9288.64331904372,21.2585913059662,0,-0.553145921342298,0,0.054349223534546,0,0,-21.749473103838,0,1,19.9502227376104,0,7.36357844014269,0,0.054349223534546,0
13.95,240.502342405432,0,-9288.27633839742,21.2680301230934,0,-0.550078456267764,0,0.0546268470648393,0,0,-21.5933621744146,0,1,19.9778593462711,0,7.31551963741921,0,0.0546268470648393,0
14,241.501899156458,0,-9287.91177930714,21.276135448471,0,-0.546906323262947,0,0.0548444112594917,0,0,-21.436541686542,0,1,20.0041926171161,0,7.266727178409,0,0.0548444112594917,0
14.05,242.502739778512,0,-9287.54967680814,21.2829217690417,0,-0.543640025854844,0,0.0550009432655375,0,0,-21.2791851373935,0,1,20.0292126852467,0,7.21726698370045,0,0.0550009432655375,0
14.1,243.504798400387,0,-9287.19006263675,21.2884045699652,0,-0.540291495324294,0,0.0550956773373489,0,0,-21.1214685203066,0,1,20.0529113901722,0,7.16720509071253,0,0.0550956773373489,0
14.15,244.508008785039,0,-9286.83296522454,21.2926003261796,0,-0.536873795461677,0,0.0551280764668333,0,0,-20.9635696991866,0,1,20.0752822560549,0,7.11660765129027,0,0.0551280764668333,0
14.2,245.512304413425,0,-9286.47840969298,21.2955264935846,0,-0.533400824721218,0,0.0550978485473536,0,0,-20.8056677287632,0,1,20.0963204764745,0,7.06554091245747,0,0.0550978485473536,0
14.25,246.517618567669,0,-9286.12641784953,21.2972014992474,0,-0.529887021834198,0,0.0550049570843138,0,0,-20.6479421363679,0,1,20.1160229029864,0,7.01407118027605,0,0.0550049570843138,0
14.3,247.523884413742,0,-9285.77700818593,21.2976447300991,0,-0.52634708048629,0,0.0548496265764281,0,0,-20.4905721807044,0,1,20.1343880366527,0,6.96226476716812,0,0.0548496265764281,0
14.35,248.531035083771,0,-9285.43019587956,21.2968765196673,0,-0.522795678118251,0,0.0546323427930979,0,0,-20.333736102578,0,1,20.1514160216559,0,6.91018792343343,0,0.0546323427930979,0
14.4,249.539003758058,0,-9285.0859927985,21.2949181324717,0,-0.519247223290225,0,0.0543538482634187,0,0,-20.177610381774,0,1,20.1671086400737,0,6.85790675403465,0,0.0543538482634187,0
14.45,250.547723746856,0,-9284.74440751125,21.2917917457929,0,-0.51571562537644,0,0.0540151333698499,0,0,-20.0223690132574,0,1,20.1814693068791,0,6.80548712201925,0,0.0540151333698499,0
14.5,251.55712857187,0,-9284.4054453014,21.2875204286125,0,-0.512214089647574,0,0.0536174235035933,0,0,-19.8681828146428,0,1,20.1945030642574,0,6.75299454019694,0,0.0536174235035933,0
14.55,252.567152047451,0,-9284.06910818813,21.2821281176013,0,-0.508754940070849,0,0.0531621627887268,0,0,-19.7152187755031,0,1,20.2062165743667,0,6.70049405289138,0,0.0531621627887268,0
14.6,253.577728361364,0,-9283.73539495272,21.2756395901124,0,-0.505349471430248,0,0.0526509949179546,0,0,-19.5636394575745,0,1,20.216618109741,0,6.6480501097335,0,0.0526509949179546,0
14.65,254.588792155,0,-9283.40430117157,21.2680804342085,0,-0.50200783165749,0,0.0520857416646426,0,0,-19.4136024533272,0,1,20.2257175406122,0,6.59572643356116,0,0.0520857416646426,0
14.7,255.600278602875,0,-9283.07581925595,21.2594770158158,0,-0.498738934583212,0,0.05146837964411,0,0,-19.2652599087393,0,1,20.233526318528,0,6.54358588453635,0,0.05146837964411,0
14.75,256.612123491193,0,-9282.74993849855,21.249856443158,0,-0.49555040268021,0,0.0508010158926989,0,0,-19.1187581144724,0,1,20.2400574557489,0,6.49169032258949,0,0.0508010158926989,0
14.8,257.624263295277,0,-9282.42664512693,21.239246528668,0,-0.492448538787588,0,0.0500858628169819,0,0,-18.9742371680381,0,1,20.2453255000241,0,6.44010047025401,0,0.0500858628169819,0
14.85,258.636635255603,0,-9282.10592236377,21.2276757486186,0,-0.48943832528532,0,0.0493252130387767,0,0,-18.8318307080013,0,1,20.2493465044614,0,6.38887577786622,0,0.0493252130387767,0
14.9,259.649177452218,0,-9281.78775049379,21.2151732007436,0,-0.486523448739685,0,0.0485214146258068,0,0,-18.6916657198066,0,1,20.2521379923297,0,6.33807429298178,0,0.0485214146258068,0
14.95,260.661828877254,0,-9281.47210693698,21.201768560144,0,-0.483706347666125,0,0.0476768471543381,0,0,-18.5538624114718,0,1,20.2537189167428,0,6.28775253570444,0,0.0476768471543381,0
15,261.674529505313,0,-9281.15896632801,21.1874920337886,0,-0.480988280759779,0,0.0467938990004731,0,0,-18.4185341561865,0,1,20.2541096152857,0,6.23796538144258,0,0.0467938990004731,0
15.05,262.687220361448,0,-9280.84830060114,21.1723743139276,0,-0.478369412725796,0,0.045874946202566,0,0,-18.2857874977899,0,1,20.2533317597477,0,6.18876595240822,0,0.045874946202566,0
15.1,263.699843586524,0,-9280.54007908045,21.1564465307368,0,-0.475848914700317,0,0.0449223331799593,0,0,-18.1557222142055,0,1,20.2514083012142,0,6.14020551895931,0,0.0449223331799593,0
15.15,264.712342499716,0,-9280.23426857466,21.1397402045085,0,-0.473425076185723,0,0.0439383555344443,0,0,-18.0284314331771,0,1,20.2483634108538,0,6.09233341166353,0,0.0439383555344443,0
15.2,265.724661657953,0,-9279.93083347605,21.1222871976907,0,-0.471095425425957,0,0.0429252451018942,0,0,-17.9040017940835,0,1,20.2442224168016,0,6.04519694473694,0,0.0429252451018942,0
15.25,266.736746912114,0,-9279.629735863,21.1041196670664,0,-0.468856855213837,0,0.0418851573637166,0,0,-17.7825136492173,0,1,20.2390117375978,0,5.99884135128773,0,0.0418851573637166,0
15.3,267.748545459823,0,-9279.33093560536,21.0852700163427,0,-0.46670575124554,0,0.0408201612722712,0,0,-17.6640412976764,0,1,20.2327588126806,0,5.95330973058016,0,0.0408201612722712,0
15.35,268.760005894705,0,-9279.03439047226,21.0657708494007,0,-0.464638120310648,0,0.0397322314922019,0,0,-17.5486532449363,0,1,20.2254920304613,0,5.90864300732848,0,0.0397322314922019,0
15.4,269.771078251992,0,-9278.74005624158,21.0456549244311,0,-0.462649715821202,0,0.0386232430115934,0,0,-17.4364124812399,0,1,20.2172406545263,0,5.86487990284118,0,0.0386232430115934,0
15.45,270.781714050417,0,-9278.44788681058,21.024955109157,0,-0.46073615843218,0,0.0374949680336537,0,0,-17.327376772132,0,1,20.2080347485166,0,5.82205691766259,0,0.0374949680336537,0
15.5,271.791866330311,0,-9278.15783430719,21.0037043373157,0,-0.458893049780332,0,0.0363490750217618,0,0,-17.2215989547793,0,1,20.1979051002257,0,5.78020832520654,0,0.0363490750217618,0
15.55,272.801489687915,0,-9277.86984920127,20.9819355665466,0,-0.457116077660455,0,0.0351871297385461,0,0,-17.1191272341296,0,1,20.186883145446,0,5.73936617574428,0,0.0351871297385461,0
15.6,273.810540305874,0,-9277.58388041551,20.9596817378024,0,-0.455401111260133,0,0.0340105980933709,0,0,-17.0200054734561,0,1,20.1750008920639,0,5.69956031000001,0,0.0340105980933709,0
15.65,274.818975979964,0,-9277.29987543532,20.9369757363736,0,-0.453744285378595,0,0.0328208505922421,0,0,-16.9242734743984,0,1,20.1622908448782,0,5.66081838151977,0,0.0328208505922421,0
15.7,275.826756142077,0,-9277.0177804175,20.9138503545899,0,-0.452142072855887,0,0.031619168169611,0,0,-16.8319672422219,0,1,20.1487859315755,0,5.62316588691552,0,0.031619168169611,0
15.75,276.833841879549,0,-9276.7375402972,20.8903382562351,0,-0.450591344729186,0,0.0304067491726457,0,0,-16.7431192326649,0,1,20.1345194302555,0,5.5866262030431,0,0.0304067491726457,0
15.8,277.840195950904,0,-9276.45909889283,20.8664719426907,0,-0.449089417908553,0,0.0291847172649402,0,0,-16.6577585774034,0,1,20.1195248988578,0,5.55122063015104,0,0.0291847172649402,0
15.85,278.845782798133,0,-9276.18239900869,20.8422837207954,0,-0.447634090420403,0,0.0279541300179395,0,0,-16.5759112858353,0,1,20.1038361067906,0,5.51696844003497,0,0.0279541300179395,0
15.9,279.850568555602,0,-9275.90738253513,20.8178056723938,0,-0.446223664499946,0,0.0267159879641139,0,0,-16.4976004215361,0,1,20.0874869690191,0,5.48388692824699,0,0.0267159879641139,0
15.95,280.854521055744,0,-9275.633990546,20.7930696255228,0,-0.444856958021135,0,0.0254712438955882,0,0,-16.4228462523787,0,1,20.0705114828218,0,5.4519914694409,0,0.0254712438955882,0
16,281.857609831646,0,-9275.36216339321,20.7681071271741,0,-0.443533304932291,0,0.0242208122049811,0,0,-16.3516663739066,0,1,20.0529436673792,0,5.42129557497843,0,0.0242208122049811,0
16.05,282.859806116701,0,-9275.09184079847,20.7429494175528,0,-0.442252545516556,0,0.0229655780810554,0,0,-16.2840758061135,0,1,20.0348175063138,0,5.3918109519782,0,0.0229655780810554,0
16.1,283.861082841451,0,-9274.822961942,20.7176274057458,0,-0.441015007418178,0,0.0217064063898511,0,0,-16.2200870642914,0,1,20.0161668932624,0,5.36354756305443,0,0.0217064063898511,0
16.15,284.861414627797,0,-9274.55546554826,20.6921716467017,0,-0.439821478468602,0,0.0204441500917012,0,0,-16.1597102050678,0,1,19.9970255805188,0,5.33651368606542,0,0.0204441500917012,0
16.2,285.860777780706,0,-9274.2892899687,20.6666123194212,0,-0.438673172411351,0,0.0191796580653756,0,0,-16.1029528491511,0,1,19.977427130757,0,5.31071597326966,0,0.0191796580653756,0
