Time,Inertial_X_Position,Inertial_Y_Position,Inertial_Z_Position,Body_U_Vel,Body_V_Vel,Body_W_Vel,Body_P_Vel,Body_Q_Vel,Body_R_Vel,Roll_Angle,Pitch_Angle,Yaw_Angle,Phase,Inertial_Vx,Inertial_Vy,Inertial_Vz,Eul_Phi_Dot,Eul_Theta_Dot,Eul_Psi_Dot,delta_R,delta_L,delta_s,delta_a,GAMMA_deg,Wind_X,Wind_Y,Wind_Z
0,0,0,-1000,6,0,3,0,0,0,0,0,0,1,6,0,3,0,0,0,0,0,0,0,7,0,0,0
0.05,0.304578737003027,0,-999.868130561602,6.19508678108689,0,2.21885966723874,0,-0.557406013793567,0,0,-0.842682809365209,0,1,6.16178385288059,0,2.30973119615171,0,-0.557406013793567,0,0,0,0,0,7,0,0,0
0.1,0.614492385365254,0,-999.765695705722,6.31005871532646,0,1.48722160529128,0,-0.941202309341716,0,0,-3.02717343599834,0,1,6.2227141395321,0,1.81837780226767,0,-0.941202309341716,0,0,0,0,0,7,0,0,0
0.15,0.925899124656237,0,-999.683415980891,6.35082588911332,0,0.829387938804363,0,-1.17744331772703,0,0,-6.09388656917062,0,1,6.22689298551408,0,1.49889211547116,0,-1.17744331772703,0,0,0,0,0,7,0,0,0
0.2,1.23665262408629,0,-999.613400848789,6.33365110781645,0,0.264585629852327,0,-1.29088878324334,0,0,-9.65576530894123,0,1,6.19954538936846,0,1.32317001032717,0,-1.29088878324334,0,0,0,0,0,7,0,0,0
0.25,1.54555838690537,0,-999.549155284576,6.27988115798456,0,-0.196560254257648,0,-1.30547869540983,0,0,-13.3955175106999,0,1,6.15456821550383,0,1.26365872476444,0,-1.30547869540983,0,0,0,0,0,7,0,0,0
0.3,1.85194459489339,0,-999.485530565289,6.21091540195104,0,-0.552565295563215,0,-1.24396931005726,0,0,-17.0628823075197,0,1,6.0996657128855,0,1.29417028520306,0,-1.24396931005726,0,0,0,0,0,7,0,0,0
0.35,2.15544146407916,0,-999.418638725847,6.14456266405976,0,-0.809428112791554,0,-1.12723930304278,0,0,-20.4702719170748,0,1,6.03963097589117,0,1.39056890422242,0,-1.12723930304278,0,0,0,0,0,7,0,0,0
0.4,2.45588738287105,0,-999.345733990984,6.0932452725036,0,-0.977986039319046,0,-0.973662579955937,0,0,-23.4864467152203,0,1,5.97820540211593,0,1.53138983087338,0,-0.973662579955937,0,0,0,0,0,7,0,0,0
0.45,2.75330074527073,0,-999.26506782674,6.06381377156571,0,-1.07134736287085,0,-0.798765008765695,0,0,-26.0287708073489,0,1,5.91891546442653,0,1.69825273535264,0,-0.798765008765695,0,0,0,0,0,7,0,0,0
0.5,3.04787588216855,0,-999.175730587147,6.05838096912526,0,-1.1029935270128,0,-0.615200294060898,0,0,-28.054949269911,0,1,5.86526053718238,0,1.87597801657224,0,-0.615200294060898,0,0,0,0,0,7,0,0,0
0.55,3.33997875670937,0,-999.077494482648,6.07558210908244,0,-1.08567734102415,0,-0.432961180399529,0,0,-29.5550600992408,0,1,5.82056094110483,0,2.05242870373144,0,-0.432961180399529,0,0,0,0,0,7,0,0,0
0.6,3.63013126634694,0,-998.970669264549,6.11185000538804,0,-1.03095773035353,0,-0.259704059452844,0,0,-30.5443817400857,0,1,5.78768230612358,0,2.21817894984186,0,-0.259704059452844,0,0,0,0,0,7,0,0,0
0.65,3.91898148240766,0,-998.855976345468,6.16249580955817,0,-0.949118454025458,0,-0.1010851039963,0,0,-31.0571865914301,0,1,5.76876329736352,0,2.36612562252836,0,-0.1010851039963,0,0,0,0,0,7,0,0,0
0.7,4.20726178864174,0,-998.734441834644,6.22252821267459,0,-0.849246990023697,0,0.0389499681967316,0,0,-31.1414396650184,0,1,5.76501024223971,0,2.49113121181257,0,0.0389499681967316,0,0,0,0,0,7,0,0,0
0.75,4.49573905498784,0,-998.60730563006,6.28721808921214,0,-0.739326858766091,0,0.157937983485857,0,0,-30.8542386242491,0,1,5.77658627281962,0,2.58974256212488,0,0.157937983485857,0,0,0,0,0,7,0,0,0
0.8,4.78516186419599,0,-998.47594251446,6.35244424493277,0,-0.626275558340938,0,0.254718965666411,0,0,-30.257832051325,0,1,5.80260465898211,0,2.6599902502667,0,0.254718965666411,0,0,0,0,0,7,0,0,0
0.85,5.07621000793992,0,-998.341791696262,6.41486304572401,0,-0.515920177735227,0,0.32927923322394,0,0,-29.4161128402799,0,1,5.84122501447293,0,2.70124635223922,0,0.32927923322394,0,0,0,0,0,7,0,0,0
0.9,5.36945114116595,0,-998.206292723299,6.47194492461211,0,-0.412938146173758,0,0.382591211647193,0,0,-28.3915605338347,0,1,5.88984033786265,0,2.71410571169657,0,0.382591211647193,0,0,0,0,0,7,0,0,0
0.95,5.66530859196803,0,-998.070827479355,6.52191940447364,0,-0.320803465163353,0,0.416433205218533,0,0,-27.2426687381385,0,1,5.94533124358015,0,2.70025628150743,0,0.416433205218533,0,0,0,0,0,7,0,0,0
1,5.96404288059314,0,-997.936669467947,6.56366735683059,0,-0.241774636612431,0,0.433184953389947,0,0,-26.0219240433077,0,1,6.00435388054681,0,2.6623145237171,0,0.433184953389947,0,0,0,0,0,7,0,0,0
1.05,6.26574768524851,0,-997.804942403943,6.59659350680122,0,-0.176946296837417,0,0.435606612105107,0,0,-24.7743973147112,0,1,6.06362354813871,0,2.60361774314014,0,0.435606612105107,0,0,0,0,0,7,0,0,0
1.1,6.57035913554721,0,-997.676590125385,6.6205035579159,0,-0.126369163754464,0,0.4266167862581,0,0,-23.5369737593643,0,1,6.1201590046788,0,2.52798146420699,0,0.4266167862581,0,0,0,0,0,7,0,0,0
1.15,6.8776757865577,0,-997.552359106496,6.63550018258921,0,-0.0892277148934788,0,0.409088057568058,0,0,-22.3381981260267,0,1,6.17146229823614,0,2.43944201810506,0,0.409088057568058,0,0,0,0,0,7,0,0,0
1.2,7.18738570270144,0,-997.432793682777,6.64190270683033,0,-0.0640551490137606,0,0.385676438824309,0,0,-21.1986604420525,0,1,6.21562265183575,0,2.34200975213633,0,0.385676438824309,0,0,0,0,0,7,0,0,0
1.25,7.49909685742225,0,-997.318242845835,6.64018845972217,0,-0.0489614253962351,0,0.358695844062727,0,0,-20.1318077061799,0,1,6.25134661471971,0,2.23945651988083,0,0.358695844062727,0,0,0,0,0,7,0,0,0
1.3,7.81236744463965,0,-997.208876439191,6.63095024001253,0,-0.0418516022139699,0,0.330041937480668,0,0,-19.1450447157285,0,1,6.27792713696063,0,2.1351542110919,0,0.330041937480668,0,0,0,0,0,7,0,0,0
1.35,8.12673349265094,0,-997.104707975264,6.61486382556997,0,-0.0406165586047312,0,0.301163346510536,0,0,-18.2409840871929,0,1,6.29516985485873,0,2.03197185860067,0,0.301163346510536,0,0,0,0,0,7,0,0,0
1.4,8.44173212627346,0,-997.00562114461,6.592660856457,0,-0.0432846390614783,0,0.273073347607881,0,0,-17.4187187231734,0,1,6.30329580460963,0,1.93222998833721,0,0.273073347607881,0,0,0,0,0,7,0,0,0
1.45,8.75691973177259,0,-996.911397334554,6.5651045443594,0,-0.0481292958195166,0,0.246392244586063,0,0,-16.6750143406261,0,1,6.30283726208019,0,1.83770415334409,0,0.246392244586063,0,0,0,0,0,7,0,0,0
1.5,9.0718850098368,0,-996.821741985824,6.53296755541266,0,-0.0537334105671163,0,0.22140970626832,0,0,-16.0053494803865,0,1,6.29453907509769,0,1.74966573709208,0,0.22140970626832,0,0,0,0,0,7,0,0,0
1.55,9.38625740166883,0,-996.736308250091,6.49701258703683,0,-0.0590151150818206,0,0.198156925912316,0,0,-15.404760620424,0,1,6.27927315262044,0,1.66894697779865,0,0.198156925912316,0,0,0,0,0,7,0,0,0
1.6,9.69971164983531,0,-996.654717047241,6.45797653882781,0,-0.0632224539548791,0,0.176480085220407,0,0,-14.8684769161991,0,1,6.2579696610122,0,1.59601810033138,0,0.176480085220407,0,0,0,0,0,7,0,0,0
1.65,10.0119693514313,0,-996.57657317572,6.41655895946096,0,-0.0659052714585288,0,0.156108734697646,0,0,-14.392350508654,0,1,6.23156540146675,0,1.53106663221669,0,0.156108734697646,0,0,0,0,0,7,0,0,0
1.7,10.3227983311092,0,-996.501477558603,6.37341493223108,0,-0.0668725567239924,0,0.136714916447387,0,0,-13.9731034505562,0,1,6.20096786783794,0,1.47407168729011,0,0.136714916447387,0,0,0,0,0,7,0,0,0
1.75,10.632010557238,0,-996.429036001025,6.3291520087266,0,-0.0661425152383425,0,0.117960859433703,0,0,-13.6084213152343,0,1,6.16703244988926,0,1.42486867601996,0,0.117960859433703,0,0,0,0,0,7,0,0,0
1.8,10.9394591868627,0,-996.358865002015,6.28433038673201,0,-0.0638912123428542,0,0.0995347020652882,0,0,-13.2969273406528,0,1,6.13054990574137,0,1.38320220858424,0,0.0995347020652882,0,0,0,0,0,7,0,0,0
1.85,11.245035182599,0,-996.290595228611,6.2394653245673,0,-0.060404060355914,0,0.081174880159886,0,0,-13.0380707236508,0,1,6.09224133369347,0,1.34876674003402,0,0.081174880159886,0,0,0,0,0,7,0,0,0
1.9,11.5486638142811,0,-996.223873249575,6.19503077957942,0,-0.0560329172132937,0,0.0626845740634935,0,0,-12.8319596734588,0,1,6.05275822759127,0,1.32123574205138,0,0.0626845740634935,0,0,0,0,0,7,0,0,0
1.95,11.8503012486432,0,-996.158362066408,6.15146339874838,0,-0.0511602683488664,0,0.0439379976807033,0,0,-12.6791652058023,0,1,6.01268565826982,0,1.30028092888995,0,0.0439379976807033,0,0,0,0,0,7,0,0,0
2,12.1499313442843,0,-996.093740892882,6.109166206944,0,-0.0461709395117998,0,0.0248804164236753,0,0,-12.580516344813,0,1,5.97254709423973,0,1.28558341106697,0,0.0248804164236753,0,0,0,0,0,7,0,0,0
2.05,12.4475627058155,0,-996.029704538283,6.06851157420666,0,-0.0414310471429565,0,0.00552368536382573,0,0,-12.5369020929863,0,1,5.93280980488381,0,1.27683870438757,0,0.00552368536382573,0,0,0,0,0,7,0,0,0
2.1,12.7432260076398,0,-995.965962656064,6.02984325659808,0,-0.0372734112420632,0,-0.0140611207940904,0,0,-12.5490906906575,0,1,5.8938901532734,0,1.27375738171515,0,-0.0140611207940904,0,0,0,0,0,7,0,0,0
2.15,13.0369715707115,0,-995.902239036231,5.99347747407281,0,-0.033988391677759,0,-0.0337526962086391,0,0,-12.6175725789521,0,1,5.85615837493838,0,1.27606290229991,0,-0.0337526962086391,0,0,0,0,0,7,0,0,0
2.2,13.3288671611389,0,-995.83827105048,5.95970310745993,0,-0.0318190147024195,0,-0.0533891193979213,0,0,-12.7424302127833,0,1,5.81994265557133,0,1.28348785137434,0,-0.0533891193979213,0,0,0,0,0,7,0,0,0
2.25,13.6189959741861,0,-995.773809305182,5.92878116916046,0,-0.0309592854305095,0,-0.0727773875260521,0,0,-12.9232354419474,0,1,5.78553247252247,0,1.29576951597653,0,-0.0727773875260521,0,0,0,0,0,7,0,0,0
2.3,13.9074547681168,0,-995.70861751824,5.90094373769283,0,-0.0315546931056466,0,-0.0917024104841255,0,0,-13.1589735159126,0,1,5.75318126263066,0,1.3126454408517,0,-0.0917024104841255,0,0,0,0,0,7,0,0,0
2.35,14.1943521169763,0,-995.642472609811,5.87639255503934,0,-0.0337040752539371,0,-0.109935211290528,0,0,-13.4479917582291,0,1,5.72310853383661,0,1.3338493676338,0,-0.109935211290528,0,0,0,0,0,7,0,0,0
2.4,14.4798067579682,0,-995.575164981766,5.85529747697876,0,-0.0374621879388762,0,-0.127240238291902,0,0,-13.7879704689989,0,1,5.69550156107735,0,1.35910776879706,0,-0.127240238291902,0,0,0,0,0,7,0,0,0
2.45,14.7639460162032,0,-995.506498953907,5.83779494717758,0,-0.0428425128190429,0,-0.143381808672715,0,0,-14.1759135166269,0,1,5.67051680782208,0,1.38813704597352,0,-0.143381808672715,0,0,0,0,0,7,0,0,0
2.5,15.0469042963762,0,-995.436293324076,5.82398664042626,0,-0.0498200039250799,0,-0.158129776227114,0,0,-14.6081562501651,0,1,5.64828120119537,0,1.42064136673464,0,-0.158129776227114,0,0,0,0,0,7,0,0,0
2.55,15.3288216368083,0,-995.364382022087,5.81393839187402,0,-0.0583336290351801,0,-0.171264554953292,0,0,-15.0803886927145,0,1,5.62889336695468,0,1.45631105888705,0,-0.171264554953292,0,0,0,0,0,7,0,0,0
2.6,15.6098423259676,0,-995.290614832141,5.807679499049,0,-0.0682886867790214,0,-0.182581640028371,0,0,-15.5876923736434,0,1,5.6124249048342,0,1.49482145957733,0,-0.182581640028371,0,0,0,0,0,7,0,0,0
2.65,15.8901135849364,0,-995.214858163523,5.8052024528807,0,-0.0795589782266263,0,-0.191895755271852,0,0,-16.1245895497265,0,1,5.59892175756955,0,1.53583212056623,0,-0.191895755271852,0,0,0,0,0,7,0,0,0
2.7,16.1697843212697,0,-995.13699585377,5.80646312381838,0,-0.0919889796012066,0,-0.199044727110793,0,0,-16.6851038968287,0,1,5.58840569974817,0,1.57898629368747,0,-0.199044727110793,0,0,0,0,0,7,0,0,0
2.75,16.4490039603393,0,-995.056929991526,5.81138140064339,0,-0.1053962010528,0,-0.203893144667728,0,0,-17.2628319845179,0,1,5.58087594623872,0,1.62391065506522,0,-0.203893144667728,0,0,0,0,0,7,0,0,0
2.8,16.7279213596078,0,-994.97458174731,5.81984225423217,0,-0.119573926295226,0,-0.206335818818651,0,0,-17.8510249507743,0,1,5.57631085481227,0,1.67021526711339,0,-0.206335818818651,0,0,0,0,0,7,0,0,0
2.85,17.0066838094168,0,-994.889892199505,5.83169717812744,0,-0.13429451139105,0,-0.206301004472475,0,0,-18.4426797610868,0,1,5.57466967425127,0,1.7174938183739,0,-0.206301004472475,0,0,0,0,0,7,0,0,0
2.9,17.2854361209088,0,-994.802823139851,5.846765944134,0,-0.149313381039391,0,-0.203753304179785,0,0,-19.0306392666629,0,1,5.57589426869325,0,1.76532421826596,0,-0.203753304179785,0,0,0,0,0,7,0,0,0
2.95,17.5643197978142,0,-994.713357838186,5.86483860577088,0,-0.164373801352203,0,-0.198696131499913,0,0,-19.6076999830544,0,1,5.5799107326284,0,1.81326965292255,0,-0.198696131499913,0,0,0,0,0,7,0,0,0
3,17.8434722842676,0,-994.621501740278,5.88567768608645,0,-0.179212434322652,0,-0.191173583035122,0,0,-20.1667261171324,0,1,5.58663080078946,0,1.86088022633974,0,-0.191173583035122,0,0,0,0,0,7,0,0,0
3.05,18.1230262759478,0,-994.527283066286,5.90902049884931,0,-0.193565597034761,0,-0.181271551908364,0,0,-20.7007679108804,0,1,5.59595295534925,0,1.90769531573958,0,-0.181271551908364,0,0,0,0,0,7,0,0,0
3.1,18.4031090771236,0,-994.430753271072,5.93458157199533,0,-0.207176065010961,0,-0.169117915253866,0,0,-21.2031818871089,0,1,5.60776314151501,0,1.95324675994757,0,-0.169117915253866,0,0,0,0,0,7,0,0,0
3.15,18.6838419822116,0,-994.331987322247,5.96205516671699,0,-0.219800181310767,0,-0.15488164557202,0,0,-21.6677501230515,0,1,5.62193502339408,0,1.99706297432405,0,-0.15488164557202,0,0,0,0,0,7,0,0,0
3.2,18.9653396578277,0,-994.231083748087,5.99111791097683,0,-0.231214968448557,0,-0.138770730874864,0,0,-22.0887952937496,0,1,5.63832974548212,0,2.03867404605875,0,-0.138770730874864,0,0,0,0,0,7,0,0,0
3.25,19.2477095006714,0,-994.128164406018,6.02143158820442,0,-0.241224895659218,0,-0.121028840216686,0,0,-22.461287967811,0,1,5.65679521038175,0,2.07761781122368,0,-0.121028840216686,0,0,0,0,0,7,0,0,0
3.3,19.5310509484372,0,-994.023373923836,6.05264613627965,0,-0.24966793502031,0,-0.101930736632596,0,0,-22.7809425473913,0,1,5.67716493767466,0,2.1134468527114,0,-0.101930736632596,0,0,0,0,0,7,0,0,0
3.35,19.8154547256563,0,-993.916878770554,6.08440291521928,0,-0.256420550069087,0,-0.081776514255631,0,0,-23.0442983555382,0,1,5.6992566276454,0,2.14573628982374,0,-0.081776514255631,0,0,0,0,0,7,0,0,0
3.4,20.1010020140068,0,-993.808865921987,6.11633829236281,0,-0.261401301055758,0,-0.0608848146261847,0,0,-23.2487827059832,0,1,5.72287061055663,0,2.17409216033829,0,-0.0608848146261847,0,0,0,0,0,7,0,0,0
3.45,20.3877635469114,0,-993.699541097829,6.14808757134757,0,-0.264572820323191,0,-0.039585252167905,0,0,-23.3927533435322,0,1,5.74778841012722,0,2.19816012943085,0,-0.039585252167905,0,0,0,0,0,7,0,0,0
3.5,20.6757986405491,0,-993.589126561756,6.1792892579189,0,-0.265942005118437,0,-0.0182103433623863,0,0,-23.4755183978041,0,1,5.77377168134363,0,2.21763420221475,0,-0.0182103433623863,0,0,0,0,0,7,0,0,0
3.55,20.965154186731,0,-993.477858493379,6.20958961564396,0,-0.26555838638279,0,0.0029127184066401,0,0,-23.4973329095565,0,1,5.80056179126808,0,2.23226507318742,0,0.0029127184066401,0,0,0,0,0,7,0,0,0
3.6,21.2558636461742,0,-993.365983959947,6.23864742315987,0,-0.263510751540551,0,0.0234700755778234,0,0,-23.459372009918,0,1,5.82788029270858,0,2.24186772146254,0,0.0234700755778234,0,0,0,0,0,7,0,0,0
3.65,21.54794609213,0,-993.253757535347,6.26613880737227,0,-0.259922216474757,0,0.043168641407372,0,0,-23.3636818879109,0,1,5.85543049314753,0,2.24632785937228,0,0.043168641407372,0,0,0,0,0,7,0,0,0
3.7,21.8414053626996,0,-993.141437633102,6.29176199919419,0,-0.254944045920842,0,0.0617426207829124,0,0,-23.2131106932514,0,1,5.88290024749022,0,2.24560686655834,0,0.0617426207829124,0,0,0,0,0,7,0,0,0
3.75,22.1362293843093,0,-993.029282637267,6.31524184377469,0,-0.24874860252853,0,0.0789588349893719,0,0,-23.0112224127904,0,1,5.90996600899343,0,2.23974489287618,0,0.0789588349893719,0,0,0,0,0,7,0,0,0
3.8,22.4323897279263,0,-992.917546929153,6.33633389757777,0,-0.241521855058907,0,0.0946206445203143,0,0,-22.7621974620113,0,1,5.93629806731398,0,2.2288618898596,0,0.0946206445203143,0,0,0,0,0,7,0,0,0
3.85,22.7298414533814,0,-992.806476917468,6.35482795985699,0,-0.233455890946291,0,0.108570354688575,0,0,-22.4707241955886,0,1,5.96156679715671,0,2.21315642814428,0,0.108570354688575,0,0,0,0,0,7,0,0,0
3.9,23.0285232859231,0,-992.696307183797,6.37055091380868,0,-0.224741856884504,0,0.120690085904659,0,0,-22.1418857325601,0,1,5.98544964718176,0,2.1929022706715,0,0.120690085904659,0,0,0,0,0,7,0,0,0
3.95,23.3283581537071,0,-992.58725685393,6.38336878931316,0,-0.21556369623723,0,0.130901185213511,0,0,-21.7810464063452,0,1,6.00763852716613,0,2.16844279021188,0,0.130901185213511,0,0,0,0,0,7,0,0,0
4,23.6292540966459,0,-992.479526298181,6.39318800029564,0,-0.206092970486987,0,0.13916233962624,0,0,-21.3937418067421,0,1,6.02784720972223,0,2.14018343509435,0,0.13916233962624,0,0,0,0,0,7,0,0,0
4.05,23.9311055375241,0,-992.373294251006,6.39995575095644,0,-0.196484952814873,0,0.145466618025742,0,0,-20.985575821405,0,1,6.04581835518681,0,2.10858254924233,0,0.145466618025742,0,0,0,0,0,7,0,0,0
4.1,24.2337948872296,0,-992.26871542284,6.40365964265358,0,-0.186876075801301,0,0.149837712262539,0,0,-20.562127366171,0,1,6.06132979439004,0,2.0741409330845,0,0.149837712262539,0,0,0,0,0,7,0,0,0
4.15,24.5371944389719,0,-992.165918656279,6.4043265443106,0,-0.177382712688548,0,0.152325667445694,0,0,-20.1288686847568,0,1,6.07419975965431,0,2.03739058423701,0,0.152325667445694,0,0,0,0,0,7,0,0,0
4.2,24.8411684927426,0,-992.065005656153,6.40202081229721,0,-0.168101181852108,0,0.153002387030415,0,0,-19.6910962684723,0,1,6.08429083214524,0,1.99888307769615,0,0.153002387030415,0,0,0,0,0,7,0,0,0
4.25,25.145575641914,0,-991.966050300176,6.39684196034828,0,-0.15910879395539,0,0.151957173139571,0,0,-19.2538746600332,0,1,6.09151246428674,0,1.9591780346425,0,0.151957173139571,0,0,0,0,0,7,0,0,0
4.3,25.4502711491537,0,-991.869098515278,6.38892188672327,0,-0.150465714661889,0,0.149292521420878,0,0,-18.8219927152401,0,1,6.09582202957157,0,1.91883209003038,0,0.149292521420878,0,0,0,0,0,7,0,0,0
4.35,25.7551093386834,0,-991.774168685679,6.37842176557132,0,-0.142217393681039,0,0.145120338406505,0,0,-18.3999313398435,0,1,6.0972244398179,0,1.87838870766056,0,0.145120338406505,0,0,0,0,0,7,0,0,0
4.4,26.0599459358469,0,-991.681252543175,6.365528703804,0,-0.134397311560542,0,0.139558693755814,0,0,-17.9918413169995,0,1,6.09577044467665,0,1.83836911476287,0,0.139558693755814,0,0,0,0,0,7,0,0,0
4.45,26.3646402922012,0,-991.590316478618,6.35045225523442,0,-0.127029815178913,0,0.132729165343349,0,0,-17.6015295975484,0,1,6.09155378537246,0,1.79926454415986,0,0.132729165343349,0,0,0,0,0,7,0,0,0
4.5,26.6690574439664,0,-991.501303206264,6.33342087178328,0,-0.120132846247656,0,0.124754786268161,0,0,-17.2324523310372,0,1,6.08470741223097,0,1.76152988831559,0,0.124754786268161,0,0,0,0,0,7,0,0,0
4.55,26.9730699626802,0,-991.414133709411,6.31467835846372,0,-0.113720408774665,0,0.115758562524425,0,0,-16.8877129494506,0,1,6.07539899380457,0,1.72557879226083,0,0.115758562524425,0,0,0,0,0,7,0,0,0
4.6,27.2765595683851,0,-991.328709396128,6.29448038568874,0,-0.10780466611911,0,0.10586249988628,0,0,-16.5700637508883,0,1,6.06382594647475,0,1.69178014609373,0,0.10586249988628,0,0,0,0,0,7,0,0,0
4.65,27.5794184868518,0,-991.244914397188,6.27309110000817,0,-0.102397601544924,0,0.0951870588241431,0,0,-16.281909637161,0,1,6.05021020057398,0,1.6604558851937,0,0.0951870588241431,0,0,0,0,0,7,0,0,0
4.7,27.881550542603,0,-991.162617943953,6.25077986325946,0,-0.0975122147447991,0,0.0838509462412113,0,0,-16.0253129083619,0,1,6.03479289617315,0,1.63187996839609,0,0.0838509462412113,0,0,0,0,0,7,0,0,0
4.75,28.1828719884505,0,-991.081676771071,6.22781814068309,0,-0.0931632585839047,0,0.071971151027545,0,0,-15.8019982830891,0,1,6.01782917255613,0,1.6062783806376,0,0.071971151027545,0,0,0,0,0,7,0,0,0
4.8,28.4833120796688,0,-991.001937496843,6.20447655100765,0,-0.0893675443960161,0,0.0596631350076399,0,0,-15.6133575741497,0,1,5.99958318349191,0,1.58382999540866,0,0.0596631350076399,0,0,0,0,0,7,0,0,0
4.85,28.7828134067281,0,-990.923238942443,6.18102208589226,0,-0.0861438606296314,0,0.0470410998356835,0,0,-15.4604536908576,0,1,5.98032343851202,0,1.56466813152049,0,0.0470410998356835,0,0,0,0,0,7,0,0,0
4.9,29.0813320047651,0,-990.84541435926,6.15771550234292,0,-0.0835125592917482,0,0.034218261928628,0,0,-15.3440238505245,0,1,5.96031854057113,0,1.54888264574107,0,0.034218261928628,0,0,0,0,0,7,0,0,0
4.95,29.3788372608122,0,-990.768293541282,6.13480888960663,0,-0.0814948687336324,0,0.021307080063367,0,0,-15.2644820584201,0,1,5.93983336405031,0,1.53652241537218,0,0.021307080063367,0,0,0,0,0,7,0,0,0
5,29.675311641426,0,-990.691704806355,6.11254341133257,0,-0.0801119913338098,0,0.00841939261141417,0,0,-15.2219210562771,0,1,5.91912569476391,0,1.52759808070261,0,0.00841939261141417,0,0,0,0,0,7,0,0,0
5.05,29.970750263975,0,-990.615476836197,6.09114722415955,0,-0.0793840420240707,0,-0.00433356725721017,0,0,-15.216114046113,0,1,5.89844333565343,0,1.52208493475241,0,-0.00433356725721017,0,0,0,0,0,7,0,0,0
5.1,30.2651603346667,0,-990.539440370254,6.0708335750037,0,-0.0793288796830791,0,-0.0168413001355821,0,0,-15.2465165722725,0,1,5.87802166802913,0,1.51992586553556,0,-0.0168413001355821,0,0,0,0,0,7,0,0,0
5.15,30.5585604756193,0,-990.463429752786,6.05179908083447,0,-0.0799608792411194,0,-0.0289943260612711,0,0,-15.3122689944936,0,1,5.85808164814237,0,1.52103427334673,0,-0.0289943260612711,0,0,0,0,0,7,0,0,0
5.2,30.8509799620929,0,-990.387284336008,6.03422219630828,0,-0.0812896886430457,0,-0.0406846337380752,0,0,-15.41220001281,0,1,5.83882821199512,0,1.52529690182242,0,-0.0406846337380752,0,0,0,0,0,7,0,0,0
5.25,31.1424578895186,0,-990.310849744836,6.01826187597827,0,-0.0833190120307884,0,-0.0518062939665859,0,0,-15.5448317150153,0,1,5.82044905701713,0,1.53257653651869,0,-0.0518062939665859,0,0,0,0,0,7,0,0,0
5.3,31.4330422883352,0,-990.233979010714,6.0040564386615,0,-0.086045458758624,0,-0.0622562330312421,0,0,-15.7083866121279,0,1,5.80311376697042,0,1.5427145384691,0,-0.0622562330312421,0,0,0,0,0,7,0,0,0
5.35,31.7227892029342,0,-990.156533583332,5.99172264173112,0,-0.0894574970105066,0,-0.071935157329733,0,0,-15.9007971086542,0,1,5.78697324561834,0,1.55553319273561,0,-0.071935157329733,0,0,0,0,0,7,0,0,0
5.4,32.0117617492908,0,-990.078384229739,5.98135497249027,0,-0.0935345505079028,0,-0.0807486161867183,0,0,-16.119717823269,0,1,5.77215942483431,0,1.57083786348851,0,-0.0807486161867183,0,0,0,0,0,7,0,0,0
5.45,32.3000291641591,0,-989.999411830515,5.97302516234001,0,-0.0982462765892447,0,-0.0886081852986681,0,0,-16.362541131745,0,1,5.75878521351144,0,1.58841895778558,0,-0.0886081852986681,0,0,0,0,0,7,0,0,0
5.5,32.5876658570487,0,-989.919508082301,5.96678192722459,0,-0.103552063233775,0,-0.0954327484425667,0,0,-16.6264162468629,0,1,5.74694465454884,0,1.60805371005029,0,-0.0954327484425667,0,0,0,0,0,7,0,0,0
5.55,32.8747504745876,0,-989.838576115172,5.96265093495866,0,-0.109400780798123,0,-0.101149849901262,0,0,-16.9082720786248,0,1,5.73671325810803,0,1.62950780828142,0,-0.101149849901262,0,0,0,0,0,7,0,0,0
5.6,33.1613649853073,0,-989.756531032061,5.96063499672684,0,-0.115730820781581,0,-0.105697084595009,0,0,-17.2048440313903,0,1,5.72814848012802,0,1.65253689117386,0,-0.105697084595009,0,0,0,0,0,7,0,0,0
5.65,33.4475937913507,0,-989.673300375811,5.96071447656938,0,-0.122470448388222,0,-0.109023487373981,0,0,-17.5127047920473,0,1,5.72129031573788,0,1.67688795241549,0,-0.109023487373981,0,0,0,0,0,7,0,0,0
5.7,33.7335228721014,0,-989.588824527467,5.96284790934176,0,-0.129538487723134,0,-0.111090877650702,0,0,-17.8282990452346,0,1,5.71616197778924,0,1.70230069418407,0,-0.111090877650702,0,0,0,0,0,7,0,0,0
5.75,34.0192389632585,0,-989.503057037206,5.96697281477345,0,-0.136845348065565,0,-0.111875110963466,0,0,-18.1479819193062,0,1,5.71277063141817,0,1.7285088759791,0,-0.111875110963466,0,0,0,0,0,7,0,0,0
5.8,34.3048287734532,0,-989.415964886944,5.97300669313242,0,-0.144294386964356,0,-0.111367185658985,0,0,-18.4680608228265,0,1,5.71110815658447,0,1.7552417070331,0,-0.111367185658985,0,0,0,0,0,7,0,0,0
5.85,34.5903782391371,0,-989.327528681222,5.98084818683025,0,-0.151783591319799,0,-0.109574151190219,0,0,-18.7848401800651,0,1,5.7111519122252,0,1.78222533030791,0,-0.109574151190219,0,0,0,0,0,7,0,0,0
5.9,34.8759718172176,0,-989.237742760653,5.99037839217171,0,-0.159207541824629,0,-0.106519765048991,0,0,-19.0946684208492,0,1,5.71286547831017,0,1.80918444319628,0,-0.106519765048991,0,0,0,0,0,7,0,0,0
5.95,35.1616918138199,0,-989.146615230087,6.00146230631975,0,-0.166459610035853,0,-0.102244848524358,0,0,-19.3939864322285,0,1,5.71619935598188,0,1.83584409431259,0,-0.102244848524358,0,0,0,0,0,7,0,0,0
6,35.4476177466941,0,-989.054167891861,6.01395039622295,0,-0.173434322012881,0,-0.0968072975989683,0,0,-19.6793765447552,0,1,5.72109161129854,0,1.86193168709587,0,-0.0968072975989683,0,0,0,0,0,7,0,0,0
6.05,35.7338257382241,0,-988.960436073285,6.02768027841355,0,-0.180029809058259,0,-0.0902817144869953,0,0,-19.9476110134708,0,1,5.72746845493781,0,1.88717920945987,0,-0.0902817144869953,0,0,0,0,0,7,0,0,0
6.1,36.0203879358145,0,-988.865468336836,6.04247850080512,0,-0.186150255809509,0,-0.0827586374736508,0,0,-20.1956988716007,0,1,5.73524475844016,0,1.91132569469848,0,-0.0827586374736508,0,0,0,0,0,7,0,0,0
6.15,36.3073719566891,0,-988.769326061733,6.0581624194197,0,-0.191708249823324,0,-0.0743433614795326,0,0,-20.4209299915518,0,1,5.7443245168405,0,1.93411990278387,0,-0.0743433614795326,0,0,0,0,0,7,0,0,0
6.2,36.594840354869,0,-988.672082886482,6.07454216389561,0,-0.196626935720205,0,-0.0651543585252007,0,0,-20.6209151897179,0,1,5.75460127729826,0,1.95532319377475,0,-0.0651543585252007,0,0,0,0,0,7,0,0,0
6.25,36.8828501093219,0,-988.573824003872,6.09142268529009,0,-0.200841881455655,0,-0.0553213251532091,0,0,-20.7936212633425,0,1,5.76595856283317,0,1.97471254715826,0,-0.0553213251532091,0,0,0,0,0,7,0,0,0
6.3,37.1714521339404,0,-988.474645302653,6.1086058778739,0,-0.204302574492299,0,-0.0449829018220845,0,0,-20.937399951046,0,1,5.77827032859981,0,1.99208366359517,0,-0.0449829018220845,0,0,0,0,0,7,0,0,0
6.35,37.460690812049,0,-988.37465235368,6.12589276328976,0,-0.206973481257357,0,-0.0342841261420769,0,0,-21.0510099621256,0,1,5.79140149432171,0,2.0072540698272,0,-0.0342841261420769,0,0,0,0,0,7,0,0,0
6.4,37.7506035604086,0,-988.27395924264,6.14308572081077,0,-0.208834623514787,0,-0.0233736963691667,0,0,-21.1336314185034,0,1,5.80520859963129,0,2.02006613455468,0,-0.0233736963691667,0,0,0,0,0,7,0,0,0
6.45,38.0412204300283,0,-988.172687256308,6.15999074189068,0,-0.209881648970849,0,-0.0124011326828633,0,0,-21.1848722889648,0,1,5.81954062837154,0,2.03038989395796,0,-0.0124011326828633,0,0,0,0,0,7,0,0,0
6.5,38.3325637532878,0,-988.070963434484,6.17641968131708,0,-0.210125399030723,0,-0.00151393050369829,0,0,-21.2047666568423,0,1,5.83424004293933,0,2.03812558112644,0,-0.00151393050369829,0,0,0,0,0,7,0,0,0
6.55,38.6246478487148,0,-987.968919005062,6.19219247172772,0,-0.209591002373095,0,0.00914519819475958,0,0,-21.1937649359992,0,1,5.84914406040429,0,2.04320575464991,0,0.00914519819475958,0,0,0,0,0,7,0,0,0
6.6,38.9174787960267,0,-987.866687724746,6.20713926370648,0,-0.208316547076308,0,0.0194409032430895,0,0,-21.1527164209406,0,1,5.86408618877731,0,2.04559692838635,0,0.0194409032430895,0,0,0,0,0,7,0,0,0
6.65,39.2110542945652,0,-987.764404152569,6.22110245073731,0,-0.206351404673636,0,0.0292475107761309,0,0,-21.0828448099705,0,1,5.87889802523368,0,2.04530061694707,0,0.0292475107761309,0,0,0,0,0,7,0,0,0
6.7,39.5053636178794,0,-987.662201887191,6.2339385374061,0,-0.203754295253555,0,0.0384510038083509,0,0,-20.9857175613277,0,1,5.89341129951858,0,2.04235372932749,0,0.0384510038083509,0,0,0,0,0,7,0,0,0
6.75,39.8003876759009,0,-987.560211801814,6.24551981063216,0,-0.200591192471727,0,0.0469506160030036,0,0,-20.8632101191017,0,1,5.90746012666771,0,2.036828265546,0,0.0469506160030036,0,0,0,0,0,7,0,0,0
6.8,40.0960991938985,0,-987.458560312135,6.25573577738296,0,-0.19693317052828,0,0.0546600054477645,0,0,-20.7174661694468,0,1,5.92088341518964,0,2.02883029694842,0,0.0546600054477645,0,0,0,0,0,7,0,0,0
6.85,40.3924630143143,0,-987.357367713087,6.26449433804988,0,-0.192854291768517,0,0.0615079960454029,0,0,-20.5508551529925,0,1,5.93352736156696,0,2.01849823850526,0,0.0615079960454029,0,0,0,0,0,7,0,0,0
6.9,40.6894365238253,0,-987.256746618963,6.27172267202396,0,-0.188429624119555,0,0.0674388945648143,0,0,-20.3659282653224,0,1,5.94524795071078,0,2.00600044930066,0,0.0674388945648143,0,0,0,0,0,7,0,0,0
6.95,40.9869702037774,0,-987.156800539057,6.27736782046665,0,-0.183733463095832,0,0.0724124100961325,0,0,-20.1653741270004,0,1,5.95591337584897,0,1.99153222376006,0,0.0724124100961325,0,0,0,0,0,7,0,0,0
7,41.2850082977806,0,-987.057622617228,6.28139696021646,0,-0.178837814976476,0,0.0764032184401826,0,0,-19.9519752045912,0,1,5.96540629076589,0,1.97531225935872,0,0.0764032184401826,0,0,0,0,0,7,0,0,0
7.05,41.583489585996,0,-986.95929455903,6.28379737161469,0,-0.173811177576467,0,0.0794002259671863,0,0,-19.7285659241164,0,1,5.97362581234274,0,1.95757870520566,0,0.0794002259671863,0,0,0,0,0,7,0,0,0
7.1,41.8823482517824,0,-986.861885764445,6.28457611124322,0,-0.168717634449264,0,0.081405595196589,0,0,-19.4979932500516,0,1,5.98048920146699,0,1.93858490897868,0,0.081405595196589,0,0,0,0,0,7,0,0,0
7.15,42.1815148231126,0,-986.765452678243,6.28375940772621,0,-0.163616258907552,0,0.0824335976561432,0,0,-19.263080318868,0,1,5.98593316465606,0,1.91859498660798,0,0.0824335976561432,0,0,0,0,0,7,0,0,0
7.2,42.4809171687067,0,-986.670038363659,6.28139180456794,0,-0.158560807220522,0,0.082509358711082,0,0,-19.026593528611,0,1,5.98991473593683,0,1.89787933975966,0,0.082509358711082,0,0,0,0,0,7,0,0,0
7.25,42.7804815272747,0,-986.575672298995,6.27753507833222,0,-0.153599666687547,0,0.0816675545526698,0,0,-18.7912133063525,0,1,5.99241171724444,0,1.87671024090816,0,0.0816675545526698,0,0,0,0,0,7,0,0,0
7.3,43.0801335476434,0,-986.482370390973,6.27226696329019,0,-0.148776014554764,0,0.0799511141583286,0,0,-18.5595086129051,0,1,5.99342267445182,0,1.85535759535867,0,0.0799511141583286,0,0,0,0,0,7,0,0,0
7.35,43.3797993178504,0,-986.390135193546,6.26567971505781,0,-0.144128138096023,0,0.077409969665649,0,0,-18.3339151059463,0,1,5.99296650384504,0,1.83408497504051,0,0.077409969665649,0,0,0,0,0,7,0,0,0
7.4,43.6794063624269,0,-986.29895631658,6.25787854587331,0,-0.139689864433476,0,0.0740998881514005,0,0,-18.1167167730622,0,1,5.99108159938304,0,1.81314600147393,0,0.0740998881514005,0,0,0,0,0,7,0,0,0
7.45,43.9788845889368,0,-986.208811005399,6.24897996324326,0,-0.135491050355285,0,0.0700814071300307,0,0,-17.9100307670384,0,1,5.98782466368526,0,1.79278113630879,0,0.0700814071300307,0,0,0,0,0,7,0,0,0
7.5,44.2781671672311,0,-986.119664869766,6.23911004195305,0,-0.131558086835843,0,0.0654188859188003,0,0,-17.7157951265562,0,1,5.98326921495957,0,1.77321491848236,0,0.0654188859188003,0,0,0,0,0,7,0,0,0
7.55,44.5771913276495,0,-986.031472739368,6.22840265713578,0,-0.127914379416239,0,0.0601796759296535,0,0,-17.5357590439772,0,1,5.97750384790614,0,1.75465366843285,0,0.0601796759296535,0,0,0,0,0,7,0,0,0
7.6,44.8758990673779,0,-985.944179622321,6.21699770345068,0,-0.124580773286273,0,0.0544334053297885,0,0,-17.3714753444243,0,1,5.97063030916342,0,1.73728366281469,0,0.0544334053297885,0,0,0,0,0,7,0,0,0
7.65,45.1742377571985,0,-985.857721743385,6.20503932263855,0,-0.121575900110446,0,0.0482513675723964,0,0,-17.2242948623427,0,1,5.96276144745812,0,1.72126976842256,0,0.0482513675723964,0,0,0,0,0,7,0,0,0
7.7,45.4721606438196,0,-985.772027639459,6.19267415896252,0,-0.118916431755399,0,0.0417059990845836,0,0,-17.0953624382429,0,1,5.9540190957731,0,1.70675451192984,0,0.0417059990845836,0,0,0,0,0,7,0,0,0
7.75,45.76962724572,0,-985.687019291374,6.18004965943432,0,-0.116617233641358,0,0.0348704288298119,0,0,-16.9856143045299,0,1,5.94453193811693,0,1.69385755273698,0,0.0348704288298119,0,0,0,0,0,7,0,0,0
7.8,46.0666036429318,0,-985.602613272764,6.16731243335598,0,-0.114691417138837,0,0.0278180813627187,0,0,-16.8957766807334,0,1,5.93443340743655,0,1.68267551966907,0,0.0278180813627187,0,0,0,0,0,7,0,0,0
7.85,46.3630626633387,0,-985.518721898907,6.15460668362417,0,-0.113150296088341,0,0.0206223151337952,0,0,-16.8263654511803,0,1,5.92385965439443,0,1.67328216827112,0,0.0206223151337952,0,0,0,0,0,7,0,0,0
7.9,46.6589839698798,0,-985.435254360621,6.14207272046548,0,-0.112003257078017,0,0.013356078925712,0,0,-16.7776868490051,0,1,5.91294761960314,0,1.66572881373644,0,0.013356078925712,0,0,0,0,0,7,0,0,0
7.95,46.9543540544964,0,-985.35211783056,6.12984556678387,0,-0.111257556607485,0,0.00609157116152579,0,0,-16.7498391169196,0,1,5.9018332348537,0,1.66004499472105,0,0.00609157116152579,0,0,0,0,0,7,0,0,0
8,47.2491661457724,0,-985.269218531443,6.11805366307321,0,-0.11091806079222,0,-0.00110011080949898,0,0,-16.7427151555884,0,1,5.89064977218242,0,1.65623932507974,0,-0.00110011080949898,0,0,0,0,0,7,0,0,0
8.05,47.543420038,0,-985.186462757847,6.10681767882804,0,-0.110986944951004,0,-0.00814934166183878,0,0,-16.7560062036111,0,1,5.87952635349449,0,1.65430049355007,0,-0.00814934166183878,0,0,0,0,0,7,0,0,0
8.1,47.8371218499021,0,-985.103757845067,6.09624943651796,0,-0.111463371405803,0,-0.0149883666478576,0,0,-16.789206618323,0,1,5.8685866280248,0,1.65419837528007,0,-0.0149883666478576,0,0,0,0,0,7,0,0,0
8.15,48.1302837214874,0,-985.021013080281,6.08645095341396,0,-0.112343164232844,0,-0.0215517322273786,0,0,-16.8416198435851,0,1,5.85794762022303,0,1.65588522355473,0,-0.0215517322273786,0,0,0,0,0,7,0,0,0
8.2,48.4229234575382,0,-984.938140552689,6.07751360581149,0,-0.113618499634307,0,-0.027776750371985,0,0,-16.9123656594203,0,1,5.84771874670426,0,1.65929691487889,0,-0.027776750371985,0,0,0,0,0,7,0,0,0
8.25,48.715064126083,0,-984.855055940534,6.06951741943665,0,-0.115277630117623,0,-0.0336039953478548,0,0,-17.0003888089058,0,1,5.83800099767566,0,1.66435422551462,0,-0.0336039953478548,0,0,0,0,0,7,0,0,0
8.3,49.0067336199077,0,-984.771679233869,6.06253048900965,0,-0.117304659806739,0,-0.0389778290958478,0,0,-17.1044690904284,0,1,5.82888627567599,0,1.67096412248139,0,-0.0389778290958478,0,0,0,0,0,7,0,0,0
8.35,49.297964188749,0,-984.687935392679,6.05660852905318,0,-0.11967938696984,0,-0.0438469487790267,0,0,-17.2232329886086,0,1,5.82045688247918,0,1.67902105676672,0,-0.0438469487790267,0,0,0,0,0,7,0,0,0
8.4,49.5887919493185,0,-984.603754940458,6.05179455706246,0,-0.122377228213191,0,-0.0481649476824063,0,0,-17.3551668953155,0,1,5.81278514354475,0,1.68840825094567,0,-0.0481649476824063,0,0,0,0,0,7,0,0,0
8.45,49.8792563797467,0,-984.519074493632,6.04811870910999,0,-0.12536923673204,0,-0.0518908784611921,0,0,-17.4986319437569,0,1,5.80593315837981,0,1.69899897746614,0,-0.0518908784611921,0,0,0,0,0,7,0,0,0
8.5,50.169399804439,0,-984.433837227308,6.04559818686124,0,-0.128622224499735,0,-0.0549898057872903,0,0,-17.6518804442539,0,1,5.7999526645543,0,1.71065782742918,0,-0.0549898057872903,0,0,0,0,0,7,0,0,0
8.55,50.459266874712,0,-984.347993277771,6.04423733386182,0,-0.132098995301684,0,-0.0574333337980215,0,0,-17.8130738707712,0,1,5.79488500284151,0,1.72324197269314,0,-0.0574333337980215,0,0,0,0,0,7,0,0,0
8.6,50.7489040499546,0,-984.261500081934,6.04402783786101,0,-0.135758692092621,0,-0.0592000924769114,0,0,-17.9803023035374,0,1,5.79076117100973,0,1.73660242647636,0,-0.0592000924769114,0,0,0,0,0,7,0,0,0
8.65,51.038359083442,0,-984.174322653666,6.04494905490117,0,-0.139557258319209,0,-0.0602761662745715,0,0,-18.1516051863312,0,1,5.78760195415444,0,1.75058530925168,0,-0.0602761662745715,0,0,0,0,0,7,0,0,0
8.7,51.3276805163386,0,-984.086433796518,6.04696844996378,0,-0.143448008690543,0,-0.0606554479920248,0,0,-18.3249932086437,0,1,5.78541812012598,0,1.7650331275567,0,-0.0606554479920248,0,0,0,0,0,7,0,0,0
8.75,51.6169171828796,0,-983.997814252044,6.05004214814763,0,-0.147382300524644,0,-0.0603399012793561,0,0,-18.4984710746067,0,1,5.78421066957409,0,1.77978607334026,0,-0.0603399012793561,0,0,0,0,0,7,0,0,0
8.8,51.906117729225,0,-983.908452782486,6.05411558967496,0,-0.151310292417854,0,-0.0593397161164352,0,0,-18.6700608741715,0,1,5.78397113139344,0,1.79468335060653,0,-0.0593397161164352,0,0,0,0,0,7,0,0,0
8.85,52.1953301480571,0,-983.818346186335,6.05912428147526,0,-0.155181772778656,0,-0.0576733433845191,0,0,-18.8378257295549,0,1,5.78468189590156,0,1.80956453441003,0,-0.0576733433845191,0,0,0,0,0,7,0,0,0
8.9,52.4846013306548,0,-983.727499245079,6.06499463766128,0,-0.158947036963372,0,-0.0553673971212592,0,0,-18.9998933535578,0,1,5.78631657988271,0,1.82427096474013,0,-0.0553673971212592,0,0,0,0,0,7,0,0,0
8.95,52.7739766379313,0,-983.635924599389,6.07164490085369,0,-0.162557788582568,0,-0.0524564162512968,0,0,-19.1544791280983,0,1,5.78884041963937,0,1.83864717459358,0,-0.0524564162512968,0,0,0,0,0,7,0,0,0
9,53.0634994917845,0,-983.543642553135,6.07898613598159,0,-0.16596803823902,0,-0.048982481429722,0,0,-19.2999082931577,0,1,5.79221069033046,0,1.8525423476927,0,-0.048982481429722,0,0,0,0,0,7,0,0,0
9.05,53.3532109880765,0,-983.450680803942,6.08692328783383,0,-0.169134971708028,0,-0.0449946870084517,0,0,-19.4346368299922,0,1,5.79637715203989,0,1.86581179703056,0,-0.0449946870084517,0,0,0,0,0,7,0,0,0
9.1,53.6431495326333,0,-983.357074099577,6.09535629321297,0,-0.172019759529526,0,-0.0405484728724474,0,0,-19.557270629214,0,1,5.80128252508213,0,1.87831845091727,0,-0.0405484728724474,0,0,0,0,0,7,0,0,0
9.15,53.9333505018272,0,-983.262863820205,6.10418123800967,0,-0.174588281236389,0,-0.0357048257897,0,0,-19.666582554947,0,1,5.80686299886735,0,1.88993432870025,0,-0.0357048257897,0,0,0,0,0,7,0,0,0
9.2,54.2238459295587,0,-983.168097487563,6.11329154885225,0,-0.176811740005675,0,-0.0305293647415798,0,0,-19.7615270508457,0,1,5.81304878006106,0,1.90054198409369,0,-0.0305293647415798,0,0,0,0,0,7,0,0,0
9.25,54.5146642227664,0,-983.072828203316,6.12257920819564,0,-0.17866714731677,0,-0.0250913291971082,0,0,-19.8412519817577,0,1,5.81976468663033,0,1.91003589034618,0,-0.0250913291971082,0,0,0,0,0,7,0,0,0
9.3,54.8058299079265,0,-982.977114020199,6.13193598082875,0,-0.180137662074816,0,-0.019462493214189,0,0,-19.905107464916,0,1,5.82693079453958,0,1.91832373856091,0,-0.019462493214189,0,0,0,0,0,7,0,0,0
9.35,55.097363411335,0,-982.881017251046,6.14125463885289,0,-0.181212774373158,0,-0.0137160313590236,0,0,-19.9526515147743,0,1,5.83446314324558,0,1.92532761859819,0,-0.0137160313590236,0,0,0,0,0,7,0,0,0
9.4,55.3892808762366,0,-982.784603722364,6.15043017129734,0,-0.181888330322744,0,-0.00792536453428169,0,0,-19.9836524033215,0,1,5.84227450469818,0,1.93098505133153,0,-0.00792536453428169,0,0,0,0,0,7,0,0,0
9.45,55.6815940200476,0,-982.687941980654,6.15936096378201,0,-0.182166400822019,0,-0.00216301475260203,0,0,-19.9980877198289,0,1,5.85027521829538,0,1.93524984173855,0,-0.00216301475260203,0,0,0,0,0,7,0,0,0
9.5,55.9743100349715,0,-982.591102461142,6.16794993311151,0,-0.182055003408707,0,0.00350050239339136,0,0,-19.9961401970516,0,1,5.85837409125163,0,1.9380927244557,0,0.00350050239339136,0,0,0,0,0,7,0,0,0
9.55,56.2674315351906,0,-982.494156629959,6.17610560148113,0,-0.181567692062494,0,0.00899772033326157,0,0,-19.9781904513851,0,1,5.8664793602673,0,1.93950177700494,0,0.00899772033326157,0,0,0,0,0,7,0,0,0
9.6,56.5609565535139,0,-982.397176111889,6.18374309517093,0,-0.180723034686193,0,0.0142651746417229,0,0,-19.9448068589108,0,1,5.87449970644768,0,1.93948258081539,0,0.0142651746417229,0,0,0,0,0,7,0,0,0
9.65,56.8548785898583,0,-982.300231816671,6.19078505325036,0,-0.179544001713278,0,0.0192442458227283,0,0,-19.8967328545287,0,1,5.88234531136836,0,1.93805811623952,0,0.0192442458227283,0,0,0,0,0,7,0,0,0
9.7,57.1491867132364,0,-982.20339307736,6.19716243293428,0,-0.178057291682359,0,0.0238818753868204,0,0,-19.8348719948618,0,1,5.88992893830555,0,1.93526838474772,0,0.0238818753868204,0,0,0,0,0,7,0,0,0
9.75,57.443865718036,0,-982.1067268144,6.20281519980748,0,-0.176292620588755,0,0.0281311438860923,0,0,-19.7602711653958,0,1,5.89716701923188,0,1.93116975906328,0,0.0281311438860923,0,0,0,0,0,7,0,0,0
9.8,57.7388963343387,0,-982.010296738824,6.20769289312451,0,-0.174282001373484,0,0.0319517048557367,0,0,-19.6741023372443,0,1,5.90398072548481,0,1.92583406981368,0,0.0319517048557367,0,0,0,0,0,7,0,0,0
9.85,58.0342554908677,0,-981.914162607391,6.21175505871758,0,-0.172059038140382,0,0.0353100738537604,0,0,-19.5776432887172,0,1,5.91029699826414,0,1.91934744494561,0,0.0353100738537604,0,0,0,0,0,7,0,0,0
9.9,58.3299166279465,0,-981.818379541458,6.2149715446127,0,-0.169658256787106,0,0.0381797767119018,0,0,-19.4722577020238,0,1,5.91604951446142,0,1.91180892530672,0,0.0381797767119018,0,0,0,0,0,7,0,0,0
9.95,58.6258500566293,0,-981.722997420056,6.21732265715082,0,-0.167114489945907,0,0.0405413654671902,0,0,-19.3593750272656,0,1,5.92117956383936,0,1.90332888609455,0,0.0405413654671902,0,0,0,0,0,7,0,0,0
10,58.9220233590049,0,-981.628060356034,6.2187991781241,0,-0.164462329749154,0,0.042382314042134,0,0,-19.2404704762558,0,1,5.92563681525508,0,1.89402729902109,0,0.042382314042134,0,0,0,0,0,7,0,0,0
10.05,59.2184018236227,0,-981.533606262278,6.21940224605627,0,-0.161735657273897,0,0.0436968084513923,0,0,-19.1170454700266,0,1,5.92937995236442,0,1.8840318738234,0,0.0436968084513923,0,0,0,0,0,7,0,0,0
10.1,59.5149489091012,0,-981.439666513022,6.21914310718475,0,-0.15896725288343,0,0.044485448070027,0,0,-18.9906088188068,0,1,5.93237716289207,0,1.87347612003184,0,0.044485448070027,0,0,0,0,0,7,0,0,0
10.15,59.8116267282879,0,-981.346265703184,6.21804274386074,0,-0.156188487345793,0,0.0447548753049678,0,0,-18.8626588645059,0,1,5.9346064698853,0,1.86249737064354,0,0.0447548753049678,0,0,0,0,0,7,0,0,0
10.2,60.1083965448792,0,-981.253421506636,6.21613138991496,0,-0.153429089796042,0,0.0445173509286598,0,0,-18.7346667659755,0,1,5.93605589813353,0,1.85123480858478,0,0.0445173509286598,0,0,0,0,0,7,0,0,0
10.25,60.4052192741914,0,-981.161144632246,6.21344794400616,0,-0.15071698548777,0,0.0437902914724578,0,0,-18.6080610589476,0,1,5.93672347386405,0,1.8398275347055,0,0.0437902914724578,0,0,0,0,0,7,0,0,0
10.3,60.7020559797996,0,-981.069438874751,6.21003929306449,0,-0.1480781939518,0,0.0425957835832287,0,0,-18.4842135775733,0,1,5.93661706065723,0,1.82841271272175,0,0.0425957835832287,0,0,0,0,0,7,0,0,0
10.35,60.9988683580244,0,-980.978301255793,6.20595955866961,0,-0.145536776683876,0,0.0409600882867843,0,0,-18.3644267845155,0,1,5.93575403902783,0,1.81712382224629,0,0.0409600882867843,0,0,0,0,0,7,0,0,0
10.4,61.2956192027204,0,-980.88772224905,6.20126927958763,0,-0.143114822797799,0,0.0389131458496512,0,0,-18.2499225226369,0,1,5.93416084110092,0,1.80608904608998,0,0.0389131458496512,0,0,0,0,0,7,0,0,0
10.45,61.592272843477,0,-980.797686082192,6.1960345437675,0,-0.14083246113691,0,0.0364880895533491,0,0,-18.1418321740958,0,1,5.93187235512633,0,1.79542981265155,0,0.0364880895533491,0,0,0,0,0,7,0,0,0
10.5,61.8887955511475,0,-980.708171107518,6.19032608291001,0,-0.138707888029875,0,0.0337207743429789,0,0,-18.0411881922302,0,1,5.92893121713545,0,1.78525950870857,0,0.0337207743429789,0,0,0,0,0,7,0,0,0
10.55,62.1851559055337,0,-980.619150232476,6.18421834232019,0,-0.136757401078783,0,0.0306493241104215,0,0,-17.9489169577351,0,1,5.92538700880968,0,1.77568237251735,0,0.0306493241104215,0,0,0,0,0,7,0,0,0
10.6,62.4813251210372,0,-980.530591400901,6.17778853818302,0,-0.13499543094075,0,0.0273136994190553,0,0,-17.8658329027309,0,1,5.92129538161115,0,1.76679257203296,0,0.0273136994190553,0,0,0,0,0,7,0,0,0
10.65,62.7772773270961,0,-980.442458115714,6.17111571371073,0,-0.133434564872104,0,0.0237552858389368,0,0,-17.79263384357,0,1,5.91671712747319,0,1.75867346843454,0,0.0237552858389368,0,0,0,0,0,7,0,0,0
10.7,63.0729898012364,0,-980.354709993875,6.16427980483738,0,-0.132085557720241,0,0.0200165017773425,0,0,-17.7298974646721,0,1,5.91171721593937,0,1.7513970611059,0,0.0200165017773425,0,0,0,0,0,7,0,0,0
10.75,63.3684431535393,0,-980.267303344704,6.15736072531753,0,-0.130957327962266,0,0.0161404237722529,0,0,-17.6780789002724,0,1,5.90636381667818,0,1.74502360685025,0,0.0161404237722529,0,0,0,0,0,7,0,0,0
10.8,63.6636214622366,0,-980.180191763077,6.15043748024865,0,-0.130056938210901,0,0.0121704266571372,0,0,-17.6375093676735,0,1,5.90072732489481,0,1.73960140344389,0,0.0121704266571372,0,0,0,0,0,7,0,0,0
10.85,63.9585123609817,0,-980.093326729586,6.14358731620157,0,-0.12938956126729,0,0.00814983577917825,0,0,-17.6083958134166,0,1,5.89487940542817,0,1.73516672565393,0,0.00814983577917825,0,0,0,0,0,7,0,0,0
10.9,64.2531070790859,0,-980.006658210364,6.13688491532301,0,-0.128958434247313,0,0.00412158852310789,0,0,-17.5908215418227,0,1,5.88889206936842,0,1.73174390052695,0,0.00412158852310789,0,0,0,0,0,7,0,0,0
10.95,64.5474004366475,0,-979.920135249942,6.13040163997705,0,-0.128764804510744,0,0.000127902715265239,0,0,-17.5847478028234,0,1,5.88283679495886,0,1.72934550804406,0,0.000127902715265239,0,0,0,0,0,7,0,0,0
11,64.8413907970389,0,-979.833706551242,6.12420483372066,0,-0.128807872063446,0,-0.00379004998989851,0,0,-17.5900163222322,0,1,5.87678370244331,0,1.72797269306254,0,-0.00379004998989851,0,0,0,0,0,7,0,0,0
11.05,65.1350799796473,0,-979.747321037474,6.11835718366059,0,-0.129084733775233,0,-0.00759246695360508,0,0,-17.6063527620979,0,1,5.87080079045818,0,1.72761557474474,0,-0.00759246695360508,0,0,0,0,0,7,0,0,0
11.1,65.4284731360948,0,-979.660928391402,6.11291614851287,0,-0.129590335161827,0,-0.0112412340433583,0,0,-17.6333711011348,0,1,5.86495323960636,0,1.72825374032508,0,-0.0112412340433583,0,0,0,0,0,7,0,0,0
11.15,65.7215785933998,0,-979.574479568073,6.10793345597575,0,-0.130317435625122,0,-0.0147002413232054,0,0,-17.6705789251934,0,1,5.85930278702932,0,1.72985681100091,0,-0.0147002413232054,0,0,0,0,0,7,0,0,0
11.2,66.0144076676906,0,-979.487927277674,6.10345467232897,0,-0.13125659294227,0,-0.0179356936058396,0,0,-17.717383615179,0,1,5.853907174147,0,1.73238506886762,0,-0.0179356936058396,0,0,0,0,0,7,0,0,0
11.25,66.3069744521525,0,-979.401226435731,6.09951884648236,0,-0.13239617245326,0,-0.0209164136486594,0,0,-17.773099414727,0,1,5.84881966827953,0,1.73579013507403,0,-0.0209164136486594,0,0,0,0,0,7,0,0,0
11.3,66.5992955828942,0,-979.314334578295,6.09615823001353,0,-0.133722385833116,0,-0.023614134941121,0,0,-17.8369553523784,0,1,5.84408865761242,0,1.74001569067653,0,-0.023614134941121,0,0,0,0,0,7,0,0,0
11.35,66.891389986365,0,-979.227212240175,6.09339807405668,0,-0.135219363565143,0,-0.0260037802735662,0,0,-17.9081039831489,0,1,5.83975731791933,0,1.74499823295277,0,-0.0260037802735662,0,0,0,0,0,7,0,0,0
11.4,67.1832786118525,0,-979.139823294593,6.09125650323497,0,-0.136869264275293,0,-0.0280637216283952,0,0,-17.98563090251,0,1,5.83586334861285,0,1.75066786113836,0,-0.0280637216283952,0,0,0,0,0,7,0,0,0
11.45,67.474984152454,0,-979.052135252927,6.08974446617037,0,-0.138652422968257,0,-0.0297760164211611,0,0,-18.0685649722558,0,1,5.83243877504679,0,1.75694908662099,0,-0.0297760164211611,0,0,0,0,0,7,0,0,0
11.5,67.7665307577451,0,-978.96411952341,6.08886576146166,0,-0.140547538951909,0,-0.0311266147677715,0,0,-18.1558891829407,0,1,5.82950981353459,0,1.76376166352188,0,-0.0311266147677715,0,0,0,0,0,7,0,0,0
11.55,68.0579437411888,0,-978.875751627875,6.08861713739915,0,-0.142531902882858,0,-0.0321055322874789,0,0,-18.2465520620348,0,1,5.82709679526648,0,1.77102143628052,0,-0.0321055322874789,0,0,0,0,0,7,0,0,0
11.6,68.3492492851304,0,-978.787011375746,6.08898846308783,0,-0.144581660953059,0,-0.0327069829889296,0,0,-18.3394795212202,0,1,5.8252141451889,0,1.77864120130841,0,-0.0327069829889296,0,0,0,0,0,7,0,0,0
11.65,68.6404741460292,0,-978.697882994656,6.08996296808461,0,-0.146672112812883,0,-0.0329294670423945,0,0,-18.4335870209438,0,1,5.82387041193924,0,1.78653157997767,0,-0.0329294670423945,0,0,0,0,0,7,0,0,0
11.7,68.9316453623847,0,-978.60835521719,6.0915175471211,0,-0.1487780384424,0,-0.0327758087232823,0,0,-18.5277919160884,0,1,5.8230683450882,0,1.7946019001547,0,-0.0327758087232823,0,0,0,0,0,7,0,0,0
11.75,69.2227899676338,0,-978.518421323405,6.0936231259846,0,-0.150874047896072,0,-0.0322531405202514,0,0,-18.6210258340826,0,1,5.82280501621102,0,1.80276108318619,0,-0.0322531405202514,0,0,0,0,0,7,0,0,0
11.8,69.5139347101324,0,-978.428079138925,6.0962450841638,0,-0.152934946714416,0,-0.0313728303268893,0,0,-18.712246926561,0,1,5.82307198066445,0,1.81091853271165,0,-0.0313728303268893,0,0,0,0,0,7,0,0,0
11.85,69.8051057821854,0,-978.33733098866,6.0993437294325,0,-0.154936108875565,0,-0.0301503497603174,0,0,-18.8004518284338,0,1,5.82385547736003,0,1.81898502094566,0,-0.0301503497603174,0,0,0,0,0,7,0,0,0
11.9,70.0963285599673,0,-978.246183606359,6.1028748191389,0,-0.156853848501295,0,-0.0286050829442304,0,0,-18.8846871544298,0,1,5.82513666426736,0,1.8268735671845,0,-0.0286050829442304,0,0,0,0,0,7,0,0,0
11.95,70.3876273560724,0,-978.154648000578,6.10679012258916,0,-0.158665781178941,0,-0.0267600765186309,0,0,-18.9640603632994,0,1,5.82689188781952,0,1.83450030229835,0,-0.0267600765186309,0,0,0,0,0,7,0,0,0
12,70.6790251863525,0,-978.062739277912,6.11103801855691,0,-0.160351165743555,0,-0.0246417331454512,0,0,-19.0377498241903,0,1,5.82909298479185,0,1.84178531193344,0,-0.0246417331454512,0,0,0,0,0,7,0,0,0
12.05,70.9705435526362,0,-977.970476424775,6.11556412161565,0,-0.161891217700178,0,-0.0222794523122436,0,0,-19.1050139284069,0,1,5.83170761555049,0,1.84865345013378,0,-0.0222794523122436,0,0,0,0,0,7,0,0,0
12.1,71.2622022428771,0,-977.87788204943,6.12031193067974,0,-0.163269386153148,0,-0.0197052237337061,0,0,-19.1651991028186,0,1,5.83469962778394,0,1.85503511417266,0,-0.0197052237337061,0,0,0,0,0,7,0,0,0
12.15,71.554019150233,0,-977.784982086444,6.12522349285585,0,-0.164471587129299,0,-0.0169531800491313,0,0,-19.2177465983967,0,1,5.83802944991114,0,1.86086697062857,0,-0.0169531800491313,0,0,0,0,0,7,0,0,0
12.2,71.84601011254,0,-977.691805466294,6.1302400754589,0,-0.165486387497194,0,-0.0140591167500735,0,0,-19.2621979483682,0,1,5.84165451327894,0,1.86609262221815,0,-0.0140591167500735,0,0,0,0,0,7,0,0,0
12.25,72.1381887735927,0,-977.598383753313,6.13530283884572,0,-0.166305135241085,0,-0.0110599882884503,0,0,-19.2981990147144,0,1,5.84552970200761,0,1.87066320466906,0,-0.0110599882884503,0,0,0,0,0,7,0,0,0
12.3,72.4305664675769,0,-977.504750755787,6.14035350257981,0,-0.16692203357724,0,-0.00799339006106419,0,0,-19.3255025685235,0,1,5.84960782891028,0,1.87453790302816,0,-0.00799339006106419,0,0,0,0,0,7,0,0,0
12.35,72.7231521279054,0,-977.410942112439,6.14533499737726,0,-0.167334158222169,0,-0.00489703640388951,0,0,-19.3439693781856,0,1,5.85384013531136,0,1.87768437728911,0,-0.00489703640388951,0,0,0,0,0,7,0,0,0
12.4,73.0159522215836,0,-977.316994860118,6.15019209531401,0,-0.167541418951285,0,-0.00180824483449554,0,0,-19.3535678086782,0,1,5.8581768118411,0,1.88007908810623,0,-0.00180824483449554,0,0,0,0,0,7,0,0,0
12.45,73.3089707100622,0,-977.222946987847,6.15487201091226,0,-0.167546468336159,0,0.00123656345404055,0,0,-19.3543719642661,0,1,5.86256753642363,0,1.88170751463526,0,0.00123656345404055,0,0,0,0,0,7,0,0,0
12.5,73.6022090373227,0,-977.128836982825,6.15932496598289,0,-0.167354562136467,0,0.00420233741011824,0,0,-19.3465584348637,0,1,5.86696202474952,0,1.88256425818483,0,0.00420233741011824,0,0,0,0,0,7,0,0,0
12.55,73.8956661456831,0,-977.034703374193,6.16350471148818,0,-0.166973377176562,0,0.0070558356842735,0,0,-19.330401732163,0,1,5.87131058758592,0,1.8826530273325,0,0.0070558356842735,0,0,0,0,0,7,0,0,0
12.6,74.1893385195055,0,-976.940584280556,6.16736900020953,0,-0.166412793598036,0,0.00976602449997208,0,0,-19.3062685246105,0,1,5.87556468838718,0,1.88198650239482,0,0.00976602449997208,0,0,0,0,0,7,0,0,0
12.65,74.4832202566406,0,-976.846516967292,6.17088000465446,0,-0.165684649108035,0,0.0123044277438184,0,0,-19.2746107997277,0,1,5.87967749388806,0,1.88058607956682,0,0.0123044277438184,0,0,0,0,0,7,0,0,0
12.7,74.7773031670622,0,-976.75253741962,6.17400467540732,0,-0.164802473217878,0,0.0146454246728787,0,0,-19.2359580976154,0,1,5.88360440974802,0,1.87848149757291,0,0.0146454246728787,0,0,0,0,0,7,0,0,0
12.75,75.0715768977368,0,-976.658679937148,6.1767150360034,0,-0.163781209487642,0,0.0167664922018543,0,0,-19.1909089704331,0,1,5.88730359291962,0,1.8757103522046,0,0.0167664922018543,0,0,0,0,0,7,0,0,0
12.8,75.3660290823536,0,-976.564976755359,6.17898841136633,0,-0.162636933479775,0,0.0186483903043842,0,0,-19.1401218290904,0,1,5.89073643227681,0,1.8723175065618,0,0.0186483903043842,0,0,0,0,0,7,0,0,0
12.85,75.6606455141184,0,-976.47145769897,6.18080758786841,0,-0.161386573516156,0,0.0202752905737735,0,0,-19.0843053403987,0,1,5.89386798918516,0,1.86835440707094,0,0.0202752905737735,0,0,0,0,0,7,0,0,0
12.9,75.955410339409,0,-976.378149871609,6.18216090412637,0,-0.160047640480347,0,0.0216348493788423,0,0,-19.0242085357755,0,1,5.89666739013538,0,1.86387831733886,0,0.0216348493788423,0,0,0,0,0,7,0,0,0
12.95,76.2503062697125,0,-976.285077385561,6.18304227270134,0,-0.158637971872526,0,0.0227182282704063,0,0,-18.960610786688,0,1,5.89910816428731,0,1.85895148354398,0,0.0227182282704063,0,0,0,0,0,7,0,0,0
13,76.5453148089326,0,-976.192261134658,6.18345113390397,0,-0.157175494176531,0,0.023520065305642,0,0,-18.8943117929151,0,1,5.90116851975996,0,1.85364024631047,0,0.023520065305642,0,0,0,0,0,7,0,0,0
13.05,76.8404164928732,0,-976.099718612578,6.18339234388739,0,-0.155678006405544,0,0.0240384017375342,0,0,-18.8261217180224,0,1,5.90283155371615,0,1.8480141148207,0,0.0240384017375342,0,0,0,0,0,7,0,0,0
13.1,77.1355911374945,0,-976.007463778045,6.18287600011852,0,-0.154162986520292,0,0.0242745690551563,0,0,-18.7568515928818,0,1,5.90408539267951,0,1.84214481928074,0,0.0242745690551563,0,0,0,0,0,7,0,0,0
13.15,77.4308180923944,0,-975.915506967621,6.18191720813353,0,-0.15264742131945,0,0.0242330416614755,0,0,-18.6873040932922,0,1,5.90492326102793,0,1.83610535776796,0,0.0242330416614755,0,0,0,0,0,7,0,0,0
13.2,77.7260764959053,0,-975.823854855962,6.18053579419144,0,-0.151147659433747,0,0.0239212605544481,0,0,-18.618264782454,0,1,5.9053434771705,0,1.82996905298253,0,0.0239212605544481,0,0,0,0,0,7,0,0,0
13.25,78.0213455282115,0,-975.732510462689,6.17875596903181,0,-0.14967928624899,0,0.0233494332598594,0,0,-18.5504938937993,0,1,5.90534937847128,0,1.82380863353783,0,0.0233494332598594,0,0,0,0,0,7,0,0,0
13.3,78.3166046589807,0,-975.641473204289,6.17660594841298,0,-0.148257018961457,0,0.0225303149833825,0,0,-18.4847187150148,0,1,5.90494917747458,0,1.81769535321081,0,0.0225303149833825,0,0,0,0,0,7,0,0,0
13.35,78.6118338861695,0,-975.550738988865,6.17411753645715,0,-0.146894619541852,0,0.0214789755418785,0,0,-18.421626620419,0,1,5.90415575336013,0,1.811698160098,0,0.0214789755418785,0,0,0,0,0,7,0,0,0
13.4,78.9070139628871,0,-975.460300350951,6.17132567806071,0,-0.145604823149326,0,0.0202125561390209,0,0,-18.3618587864872,0,1,5.90298638376898,0,1.80588292595446,0,0.0202125561390209,0,0,0,0,0,7,0,0,0
13.45,79.2021266094851,0,-975.37014662318,6.16826798674979,0,-0.144399279482823,0,0.0187500195062531,0,0,-18.3060046144411,0,1,5.90146242315941,0,1.80031174420293,0,0.0187500195062531,0,0,0,0,0,7,0,0,0
13.5,79.4971547083739,0,-975.280264141194,6.16498425438128,0,-0.143288504662927,0,0.0171118963724813,0,0,-18.2545968745348,0,1,5.89960893465402,0,1.79504230325866,0,0.0171118963724813,0,0,0,0,0,7,0,0,0
13.55,79.792082479423,0,-975.190636477901,6.16151594901926,0,-0.142281841477201,0,0.0153200306860732,0,0,-18.2081075789583,0,1,5.89745428291496,0,1.79012733998475,0,0.0153200306860732,0,0,0,0,0,7,0,0,0
13.6,80.0868956341957,0,-975.101244702979,6.15790570716732,0,-0.141387426166018,0,0.0133973255165272,0,0,-18.166944584061,0,1,5.89502969593239,0,1.78561417633176,0,0.0133973255165272,0,0,0,0,0,7,0,0,0
13.65,80.3815815076633,0,-975.012067663453,6.15419682632042,0,-0.140612160342691,0,0.0113674911304465,0,0,-18.1314489177126,0,1,5.89236880374229,0,1.78154434056895,0,0.0113674911304465,0,0,0,0,0,7,0,0,0
13.7,80.6761291664434,0,-974.923082281081,6.15043276352698,0,-0.139961687100306,0,0.00925479638084903,0,0,-18.1018928238662,0,1,5.88950716201894,0,1.77795327302201,0,0.00925479638084903,0,0,0,0,0,7,0,0,0
13.75,80.9705294930018,0,-974.834263862372,6.1466566453333,0,-0.139440370828942,0,0.00708382427806521,0,0,-18.0784785135333,0,1,5.88648176823863,0,1.7748701149186,0,0.00708382427806521,0,0,0,0,0,7,0,0,0
13.8,81.2647752456292,0,-974.745586417132,6.14291079412735,0,-0.139051280724518,0,0.00487923242674207,0,0,-18.0613376091768,0,1,5.88333057770945,0,1.77231757782471,0,0.00487923242674207,0,0,0,0,0,7,0,0,0
13.85,81.5588610943588,0,-974.657022981601,6.13923627551587,0,-0.138796178391673,0,0.0026655189142606,0,0,-18.0505312677292,0,1,5.88009202623777,0,1.77031189023884,0,0.0026655189142606,0,0,0,0,0,7,0,0,0
13.9,81.8527836333125,0,-974.568545942406,6.13567247096413,0,-0.13867551030917,0,0.000466794214664113,0,0,-18.046050965813,0,1,5.87680456558276,0,1.76886281719418,0,0.000466794214664113,0,0,0,0,0,7,0,0,0
13.95,82.1465413702546,0,-974.480127357811,6.13225667950774,0,-0.138688406222611,0,-0.00169344028064995,0,0,-18.0478199290742,0,1,5.87350621716618,0,1.76797374819256,0,-0.00169344028064995,0,0,0,0,0,7,0,0,0
14,82.4401346943887,0,-974.391739272967,6.12902375191457,0,-0.138832684745224,0,-0.00379250639068071,0,0,-18.0556951856488,0,1,5.87023414878178,0,1.76764184844181,0,-0.00379250639068071,0,0,0,0,0,7,0,0,0
14.05,82.7335658236488,0,-974.303354026124,6.12600576023684,0,-0.139104867576331,0,-0.00580875506986927,0,0,-18.0694702215361,0,1,5.86702427831152,0,1.76785826817128,0,-0.00580875506986927,0,0,0,0,0,7,0,0,0
14.1,83.0268387329224,0,-974.214944543037,6.12323170525059,0,-0.139500203785464,0,-0.00772176309462235,0,0,-18.0888782129398,0,1,5.86391090772576,0,1.7686084047344,0,-0.00772176309462235,0,0,0,0,0,7,0,0,0
14.15,83.3199590647848,0,-974.126484617056,6.12072726383635,0,-0.140012705558126,0,-0.00951251928739247,0,0,-18.1135958074019,0,1,5.86092638994023,0,1.76987221224853,0,-0.00951251928739247,0,0,0,0,0,7,0,0,0
14.2,83.6129340244392,0,-974.037949172648,6.11851457791097,0,-0.140635196659584,0,-0.0111635988676022,0,0,-18.1432474217778,0,1,5.85810083043759,0,1.77162455364418,0,-0.0111635988676022,0,0,0,0,0,7,0,0,0
14.25,83.905772260635,0,-973.949314510374,6.11661208608092,0,-0.14135937465175,0,-0.0126593243474553,0,0,-18.1774100208124,0,1,5.85546182494812,0,1.77383559017413,0,-0.0126593243474553,0,0,0,0,0,7,0,0,0
14.3,84.1984837343883,0,-973.860558531535,6.11503439875157,0,-0.142175887603078,0,-0.0139859112483111,0,0,-18.2156183353289,0,1,5.85303423393035,0,1.7764712036422,0,-0.0139859112483111,0,0,0,0,0,7,0,0,0
14.35,84.4910795773523,0,-973.771660940997,6.11379221699892,0,-0.143074425673208,0,-0.0151315968119295,0,0,-18.2573704739474,0,1,5.8508399941037,0,1.77949344683113,0,-0.0151315968119295,0,0,0,0,0,7,0,0,0
14.4,84.783571941688,0,-973.682603426873,6.11289229509086,0,-0.144043827545158,0,-0.0160867498310963,0,0,-18.3021338769372,0,1,5.84889796686347,0,1.78286101781813,0,-0.0160867498310963,0,0,0,0,0,7,0,0,0
14.45,85.0759738432675,0,-973.59336981598,6.11233744613692,0,-0.145072201232988,0,-0.0168439597346777,0,0,-18.3493515554304,0,1,5.84722382305572,0,1.78652975405054,0,-0.0168439597346777,0,0,0,0,0,7,0,0,0
14.5,85.368299000009,0,-973.503946204183,6.11212658995049,0,-0.146147058327818,0,-0.0173981031396446,0,0,-18.3984485539793,0,1,5.84582996330135,0,1.79045314219779,0,-0.0173981031396446,0,0,0,0,0,7,0,0,0
14.55,85.6605616670945,0,-973.41432106093,6.11225484182762,0,-0.147255460277466,0,-0.0177463862312963,0,0,-18.4488385695131,0,1,5.84472547283347,0,1.79458283989294,0,-0.0177463862312963,0,0,0,0,0,7,0,0,0
14.6,85.9527764707688,0,-973.324485307488,6.1127136405832,0,-0.148384174842623,0,-0.0178883615543783,0,0,-18.499930655356,0,1,5.84391610964298,0,1.79886920552078,0,-0.0178883615543783,0,0,0,0,0,7,0,0,0
14.65,86.2449582423499,0,-973.234432368559,6.11349091384121,0,-0.149519840453821,0,-0.0178259180907776,0,0,-18.5511359353103,0,1,5.84340432460738,0,1.80326183219968,0,-0.0178259180907776,0,0,0,0,0,7,0,0,0
14.7,86.5371218540166,0,-973.144158197186,6.11457127825064,0,-0.150649135826095,0,-0.0175632438597688,0,0,-18.6018742500894,0,1,5.84318931219959,0,1.80771008204561,0,-0.0175632438597688,0,0,0,0,0,7,0,0,0
14.75,86.8292820578664,0,-973.053661273012,6.11593627199615,0,-0.151758951888883,0,-0.0171067606971266,0,0,-18.6515806567842,0,1,5.84326709032635,0,1.81216361670396,0,-0.0171067606971266,0,0,0,0,0,7,0,0,0
