Time,Inertial_X_Position,Inertial_Y_Position,Inertial_Z_Position,Body_U_Vel,Body_V_Vel,Body_W_Vel,Body_P_Vel,Body_Q_Vel,Body_R_Vel,Roll_Angle,Pitch_Angle,Yaw_Angle,Phase,Inertial_Vx,Inertial_Vy,Inertial_Vz,Eul_Phi_Dot,Eul_Theta_Dot,Eul_Psi_Dot
0,0,0,-1000,6,0,3,0,0,0,0,0,0,1,6,0,3,0,0,0
0.05,0.304607143507774,0,-999.863953790364,6.1944839871118,0,2.39784625702474,0,-0.418885415955694,0,0,-0.63306892925569,0,1,6.16761227580573,0,2.46614220073428,0,-0.418885415955694,0
0.1,0.615374017347981,0,-999.750998138295,6.32967578377323,0,1.82510567069303,0,-0.705328022146749,0,0,-2.2728799100933,0,1,6.25231453087919,0,2.07469738608746,0,-0.705328022146749,0
0.15,0.928946393591629,0,-999.65432541258,6.40796580451505,0,1.30648262656046,0,-0.875706560139332,0,0,-4.56296027368514,0,1,6.2837192548011,0,1.81212442513765,0,-0.875706560139332,0
0.2,1.24317752098437,0,-999.567930878158,6.4396621338203,0,0.860432029710313,0,-0.948152611006451,0,0,-7.19645808648015,0,1,6.28114539830339,0,1.66036265944601,0,-0.948152611006451,0
0.25,1.55670229110508,0,-999.486771812156,6.43904279539264,0,0.497500486701013,0,-0.941626474742934,0,0,-9.91989257001208,0,1,6.25707140476985,0,1.59932369793516,0,-0.941626474742934,0
0.3,1.86866668499542,0,-999.406823712206,6.4207110458566,0,0.220442256962265,0,-0.874861337602119,0,0,-12.534024110397,0,1,6.21984797318946,0,1.60860694809219,0,-0.874861337602119,0
0.35,2.17857137395295,0,-999.325062448701,6.39699811302356,0,0.0256483269261603,0,-0.765385064086944,0,0,-14.8917617486396,0,1,6.17555093808962,0,1.66877599028794,0,-0.765385064086944,0
0.4,2.48618777370773,0,-999.239391838989,6.37666686666042,0,-0.0948550429982887,0,-0.628793661977615,0,0,-16.8935979771939,0,1,6.12905299576377,0,1.76226762515407,0,-0.628793661977615,0
0.45,2.79151187735384,0,-999.148535033875,6.36473304648219,0,-0.151483505535778,0,-0.478348312522843,0,0,-18.4814210208435,0,1,6.08450129768272,0,1.87393115239839,0,-0.478348312522843,0
0.5,3.09473163139005,0,-999.051907631274,6.36300780312331,0,-0.155602826741252,0,-0.324865851722366,0,0,-19.6316084654217,0,1,6.04541855038386,0,1.99122954301425,0,-0.324865851722366,0
0.55,3.39619400318426,0,-998.949487482561,6.37096367300586,0,-0.118542892588479,0,-0.176814415246911,0,0,-20.3481243058457,0,1,6.01461784453637,0,2.1041869508977,0,-0.176814415246911,0
0.6,3.69636608346431,0,-998.841691217683,6.38663437202149,0,-0.0510234570572191,0,-0.040517749696744,0,0,-20.6560665019728,0,1,5.99406717532025,0,2.20518949136003,0,-0.040517749696744,0
0.65,3.99578996783484,0,-998.729262388499,6.40738442397667,0,0.0371554498320652,0,0.0796044125399592,0,0,-20.5958649037229,0,1,5.98478565029406,0,2.28873248854151,0,0.0796044125399592,0
0.7,4.2950341738674,0,-998.613172274698,6.43048170475475,0,0.137284968707933,0,0.180798806760486,0,0,-20.2181694221885,0,1,5.98681266622877,0,2.35117337031991,0,0.180798806760486,0
0.75,4.59464568850496,0,-998.494532362402,6.45346652861411,0,0.24185837486281,0,0.261754669883271,0,0,-19.579399544249,0,1,5.99926435474278,0,2.39051310629049,0,0.261754669883271,0
0.8,4.89510697684064,0,-998.374517087743,6.47434356529798,0,0.344652220014028,0,0.322387925906359,0,0,-18.7379216588995,0,1,6.02047354292946,0,2.40620200173685,0,0.322387925906359,0
0.85,5.19680174876278,0,-998.254296044071,6.49163798242957,0,0.44077701064035,0,0.363623703290153,0,0,-17.7508449706668,0,1,6.04819619495826,0,2.39895203272673,0,0.363623703290153,0
0.9,5.49999216920777,0,-998.134975812668,6.50436143498703,0,0.526683609920811,0,0.387171194410831,0,0,-16.6714508507247,0,1,6.07985755900661,0,2.37053693582189,0,0.387171194410831,0
0.95,5.80480870689553,0,-998.017552344686,6.51193031473627,0,0.600112627699159,0,0.395292355580311,0,0,-15.5472772744388,0,1,6.11280603813508,0,2.32356922213314,0,0.395292355580311,0
1,6.11125220779065,0,-997.90287507249,6.51407026189851,0,0.659983090589641,0,0.390573092662002,0,0,-14.4188650221596,0,1,6.14454344530693,0,2.26125516153096,0,0.390573092662002,0
1.05,6.41920635325646,0,-997.791623590235,6.51072969676671,0,0.706227619688961,0,0.375709804317754,0,0,-13.3191406406299,0,1,6.17290680176632,0,2.18713974219265,0,0.375709804317754,0
1.1,6.72845767423492,0,-997.684296955361,6.50201367442161,0,0.739589947471414,0,0.353324562509596,0,0,-12.2733728136125,0,1,6.19618741845274,0,2.10486023008046,0,0.353324562509596,0
1.15,7.03871987531666,0,-997.581214683901,6.48813997424879,0,0.76140491919554,0,0.325819311016783,0,0,-11.2996042535565,0,1,6.2131847454616,0,2.01792792120617,0,0.325819311016783,0
1.2,7.3496593598335,0,-997.482527615025,6.46941331093724,0,0.7733811064638,0,0.295274593007873,0,0,-10.4094381772404,0,1,6.22320250356973,0,1.92955371086959,0,0.295274593007873,0
1.25,7.66091940113599,0,-997.388236204372,6.44621103526613,0,0.777402911487092,0,0.263392990080972,0,0,-9.60905032413597,0,1,6.2260010616543,0,1.84252619472697,0,0.263392990080972,0
1.3,7.97214117945435,0,-997.2982135604,6.4189739204011,0,0.775364030436964,0,0.231482877475521,0,0,-8.9003037910549,0,1,6.2217224169427,0,1.75914346686042,0,0.231482877475521,0
1.35,8.28298070837657,0,-997.212230646494,6.38819743229902,0,0.769038694145809,0,0.20047496368119,0,0,-8.28186142130659,0,1,6.21080314054772,0,1.68119341436011,0,0.20047496368119,0
1.4,8.59312137098136,0,-997.12998144641,6.35442114393334,0,0.759992156542522,0,0.170962568422817,0,0,-7.75021460579491,0,1,6.19388752961123,0,1.60997311250832,0,0.170962568422817,0
1.45,8.90228230008705,0,-997.051106415933,6.31821588924509,0,0.749527993782465,0,0.143256512860997,0,0,-7.30057368251512,0,1,6.17174926384989,0,1.5463360762593,0,0.143256512860997,0
1.5,9.21022315543826,0,-996.975213109784,6.28016949063056,0,0.738667116337898,0,0.117446466407785,0,0,-6.92759007329937,0,1,6.14522609536416,0,1.49075624320719,0,0.117446466407785,0
1.55,9.51674599772902,0,-996.901893396842,6.24087239904181,0,0.728151952746637,0,0.0934621835759071,0,0,-6.62590148327257,0,1,6.1151690772453,0,1.44339901763634,0,0.0934621835759071,0
1.6,9.82169497859563,0,-996.830737108395,6.20090452821257,0,0.718468859580216,0,0.0711298866550361,0,0,-6.3905077075447,0,1,6.08240575171589,0,1.40419184646796,0,0.0711298866550361,0
1.65,10.1249545032519,0,-996.761342282815,6.160824185851,0,0.709882193860153,0,0.0502208150781944,0,0,-6.21699561372613,0,1,6.04771551044106,0,1.37288910072771,0,0.0502208150781944,0
1.7,10.4264464176898,0,-996.693322377294,6.12115952501192,0,0.702474378770293,0,0.0304904850030823,0,0,-6.10163815145182,0,1,6.01181481966442,0,1.34912814718844,0,0.0304904850030823,0
1.75,10.7261266542278,0,-996.626310928075,6.08240251063176,0,0.696187450484877,0,0.0117083922611413,0,0,-6.04139462549866,0,1,5.97534995175472,0,1.33247522364096,0,0.0117083922611413,0
1.8,11.0239816560808,0,-996.559964175981,6.04500509601468,0,0.690862790723872,0,-0.00632126951236512,0,0,-6.0338389513613,0,1,5.93889508862218,0,1.32246101371252,0,-0.00632126951236512,0
1.85,11.3200248034212,0,-996.493962156244,6.00937714764874,0,0.686276882662088,0,-0.0237467856905071,0,0,-6.07704016198315,0,1,5.90295401518796,0,1.31860667256605,0,-0.0237467856905071,0
1.9,11.6142929839437,0,-996.428008700387,5.97588562209516,0,0.682171891069561,0,-0.0406626484003452,0,0,-6.16941589303936,0,1,5.8679640059772,0,1.32044154807588,0,-0.0406626484003452,0
1.95,11.9068433902997,0,-996.36183072937,5.94485454764828,0,0.678280623367829,0,-0.0571084351714944,0,0,-6.30957560420437,0,1,5.8343008688942,0,1.327514055651,0,-0.0571084351714944,0
2,12.1977505829518,0,-996.295177143235,5.91656545705831,0,0.674345974404319,0,-0.0730715171738464,0,0,-6.49616637048868,0,1,5.80228442023382,0,1.33939718066106,0,-0.0730715171738464,0
2.05,12.4871038272099,0,-996.227817541164,5.89125802454213,0,0.670135314428347,0,-0.0884924348556216,0,0,-6.72773050661717,0,1,5.77218391527016,0,1.35568997181233,0,-0.0884924348556216,0
2.1,12.775004694459,0,-996.159540941988,5.86913075974586,0,0.665450478889359,0,-0.103271975734547,0,0,-7.00258123503723,0,1,5.74422315098858,0,1.37601620866033,0,-0.103271975734547,0
2.15,13.0615649071303,0,-996.090154621208,5.85034169216797,0,0.660134095863095,0,-0.117279193082192,0,0,-7.31870013608154,0,1,5.71858509833946,0,1.40002121865692,0,-0.117279193082192,0
2.2,13.3469044024431,0,-996.019483136986,5.83500903806587,0,0.65407297635759,0,-0.13035979492189,0,0,-7.67365821585689,0,1,5.69541601921275,0,1.42736761235725,0,-0.13035979492189,0
2.25,13.631149589413,0,-995.947367583981,5.82321187898825,0,0.647199224534913,0,-0.142344498173803,0,0,-8.06456103659123,0,1,5.67482908660858,0,1.4577305174859,0,-0.142344498173803,0
2.3,13.9144317755489,0,-995.87366508894,5.81499090013141,0,0.639489623832449,0,-0.153057077264776,0,0,-8.48801739368168,0,1,5.65690756285064,0,1.49079273306643,0,-0.153057077264776,0
2.35,14.196885742882,0,-995.798248544246,5.81034924186265,0,0.630963740563447,0,-0.162321938858748,0,0,-8.94013040232929,0,1,5.64170760669528,0,1.52624009738847,0,-0.162321938858748,0
2.4,14.4786484565861,0,-995.721006563453,5.80925351304831,0,0.621681073414672,0,-0.169971126292104,0,0,-9.41650948425508,0,1,5.62926078124997,0,1.56375726779672,0,-0.169971126292104,0
2.45,14.7598578928469,0,-995.641843634702,5.81163500383693,0,0.611737475712988,0,-0.17585070239043,0,0,-9.91230153923312,0,1,5.61957632515702,0,1.60302404309764,0,-0.17585070239043,0
2.5,15.0406519753736,0,-995.56068044257,5.81739112127855,0,0.601260994243028,0,-0.179826482215159,0,0,-10.4222394766007,0,1,5.6126432331497,0,1.64371231622431,0,-0.179826482215159,0
2.55,15.321167611756,0,-995.477454325196,5.82638705608617,0,0.590407207678007,0,-0.181789093061691,0,0,-10.9407062121194,0,1,5.60843217188531,0,1.68548372035105,0,-0.181789093061691,0
2.6,15.6015398216328,0,-995.392119830663,5.83845767500645,0,0.579354110807895,0,-0.181658332967062,0,0,-11.4618121641134,0,1,5.60689723554838,0,1.72798802037273,0,-0.181658332967062,0
2.65,15.8819009483431,0,-995.30464933418,5.85340962228503,0,0.568296577124401,0,-0.179386786237691,0,0,-11.9794841832242,0,1,5.60797752550688,0,1.77086229821521,0,-0.179386786237691,0
2.7,16.1623799445134,0,-995.215033675139,5.87102360675402,0,0.55744043960116,0,-0.174962639923095,0,0,-12.4875637102814,0,1,5.61159852155634,0,1.81373097995057,0,-0.174962639923095,0
2.75,16.4431017201012,0,-995.123282770817,5.89105684874831,0,0.546996253852829,0,-0.168411633105635,0,0,-12.979911777818,0,1,5.61767320111795,0,1.85620675097214,0,-0.168411633105635,0
2.8,16.7241865391069,0,-995.02942616125,5.91324566333672,0,0.537172844229425,0,-0.159798065055294,0,0,-13.4505182653984,0,1,5.62610285904652,0,1.89789239920936,0,-0.159798065055294,0
2.85,17.0057494488906,0,-994.93351343816,5.93730816248762,0,0.528170775899875,0,-0.149224791572493,0,0,-13.893612609345,0,1,5.63677758591266,0,1.93838361317087,0,-0.149224791572493,0
2.9,17.287899724256,0,-994.835614509938,5.96294706735783,0,0.520175938244349,0,-0.136832153041467,0,0,-14.3037729825985,0,1,5.64957637755123,0,1.97727274017896,0,-0.136832153041467,0
2.95,17.570740307677,0,-994.735819655152,5.98985263096019,0,0.513353460576448,0,-0.12279580348286,0,0,-14.6760308328374,0,1,5.6643668731908,0,2.01415348025049,0,-0.12279580348286,0
3,17.8543672276983,0,-994.63423931917,6.01770567884152,0,0.507842204574944,0,-0.107323446573199,0,0,-15.005967629132,0,1,5.68100475233215,0,2.04862645347769,0,-0.107323446573199,0
3.05,18.1388689800025,0,-994.531003612696,6.0461807790159,0,0.503750084132503,0,-0.0906505302235536,0,0,-15.2898007480592,0,1,5.69933285919984,0,2.08030553521587,0,-0.0906505302235536,0
3.1,18.4243258600905,0,-994.426261477422,6.07494955067318,0,0.501150449522084,0,-0.0730350026937648,0,0,-15.5244556507038,0,1,5.71918016431592,0,2.10882480646821,0,-0.0730350026937648,0
3.15,18.7108092429766,0,-994.320179492856,6.10368411338245,0,0.500079737712755,0,-0.0547512861839025,0,0,-15.707621873013,0,1,5.74036071084093,0,2.13384591980349,0,-0.0547512861839025,0
3.2,18.9983808134814,0,-994.212940309446,6.13206066494624,0,0.500536535415876,0,-0.0360836735761226,0,0,-15.8377908713072,0,1,5.76267272360494,0,2.15506563762839,0,-0.0360836735761226,0
3.25,19.287091760099,0,-994.104740706247,6.15976315811786,0,0.502482129323592,0,-0.0173193955142649,0,0,-15.9142744159425,0,1,5.78589807615885,0,2.17222326354751,0,-0.0173193955142649,0
3.3,19.5769819552697,0,-993.995789286001,6.18648702635117,0,0.505842534350163,0,0.00125836631106007,0,0,-15.9372029788691,0,1,5.80980231154311,0,2.18510766269247,0,0.00125836631106007,0
3.35,19.8680791542756,0,-993.886303836024,6.21194288941789,0,0.51051190240618,0,0.0193772316584928,0,0,-15.9075043727881,0,1,5.83413539322967,0,2.19356355671604,0,0.0193772316584928,0
3.4,20.1603982529023,0,-993.776508398922,6.23586015396777,0,0.516357129125035,0,0.0367818586857093,0,0,-15.8268637197425,0,1,5.8586333234585,0,2.19749678632365,0,0.0367818586857093,0
3.45,20.4539406495062,0,-993.666630111934,6.25799041434172,0,0.52322340188319,0,0.0532394100779247,0,0,-15.6976666001074,0,1,5.88302070907638,0,2.19687826036162,0,0.0532394100779247,0
3.5,20.7486937594198,0,-993.556895886676,6.27811055674411,0,0.530940376440833,0,0.0685440371051569,0,0,-15.5229279051546,0,1,5.90701428455646,0,2.19174635578184,0,0.0685440371051569,0
3.55,21.0446307281889,0,-993.447529011382,6.29602547570528,0,0.539328636926504,0,0.0825202291017483,0,0,-15.3062094403885,0,1,5.93032732471833,0,2.18220759577041,0,0.0825202291017483,0
3.6,21.3417103848448,0,-993.338745764426,6.31157032495459,0,0.548206087693887,0,0.0950249445160832,0,0,-15.0515296671076,0,1,5.95267480359384,0,2.16843551070608,0,0.0950249445160832,0
3.65,21.6398774675046,0,-993.230752130602,6.32461224376343,0,0.557393946045054,0,0.105948512402735,0,0,-14.7632691059363,0,1,5.97377908891918,0,2.15066767350092,0,0.105948512402735,0
3.7,21.9390631417202,0,-993.123740709746,6.33505152227024,0,0.566722049422707,0,0.115214363813505,0,0,-14.4460748556275,0,1,5.99337591101297,0,2.12920099107855,0,0.115214363813505,0
3.75,22.2391858181072,0,-993.017887901042,6.34282219282157,0,0.576033254471779,0,0.12277771512635,0,0,-14.1047674179457,0,1,6.01122031558449,0,2.10438542038085,0,0.12277771512635,0
3.8,22.5401522610335,0,-992.913351435941,6.34789205668963,0,0.58518678163551,0,0.128623375083274,0,0,-13.7442525950874,0,1,6.02709230500052,0,2.07661635353951,0,0.128623375083274,0
3.85,22.8418589657531,0,-992.810268318855,6.3502621748792,0,0.59406044007054,0,0.13276288086768,0,0,-13.3694406818508,0,1,6.04080189155959,0,2.04632597674184,0,0.13276288086768,0
3.9,23.1441937684748,0,-992.708753218432,6.3499658669803,0,0.602551746092848,0,0.135231184435111,0,0,-12.985174559564,0,1,6.05219332650808,0,2.01397394648128,0,0.135231184435111,0
3.95,23.4470376433941,0,-992.608897334603,6.34706727269932,0,0.610578017501635,0,0.136083108870871,0,0,-12.5961676631773,0,1,6.06114832485289,0,1.980037743014,0,0.136083108870871,0
4,23.7502666333448,0,-992.510767748614,6.34165953692745,0,0.618075580996636,0,0.135389777786312,0,0,-12.2069521840354,0,1,6.06758817210675,0,1.94500305394042,0,0.135389777786312,0
4.05,24.0537538567634,0,-992.414407246272,6.33386268151562,0,0.624998267550179,0,0.133235191937015,0,0,-11.8218373281318,0,1,6.07147466816483,0,1.9093545130671,0,0.133235191937015,0
4.1,24.3573715330856,0,-992.319834589414,6.32382122608435,0,0.631315390165184,0,0.129713090345221,0,0,-11.4448770020828,0,1,6.07280992924489,0,1.87356707502002,0,0.129713090345221,0
4.15,24.6609929712175,0,-992.227045197952,6.31170161703659,0,0.637009400993563,0,0.124924192430068,0,0,-11.0798459637314,0,1,6.07163512608844,0,1.83809824957902,0,0.124924192430068,0
4.2,24.9644944708214,0,-992.136012195223,6.29768951923792,0,0.642073412846895,0,0.11897387690074,0,0,-10.730223256613,0,1,6.06802828187255,0,1.80338135695112,0,0.11897387690074,0
4.25,25.2677570931708,0,-992.046687762891,6.28198701923974,0,0.646508747203893,0,0.111970315696942,0,0,-10.3991816425441,0,1,6.06210128471472,0,1.76981990156283,0,0.111970315696942,0
4.3,25.5706682665684,0,-991.959004748296,6.26480978295879,0,0.650322640812823,0,0.10402304942684,0,0,-10.0895817413486,0,1,6.05399628708403,0,1.73778310205348,0,0.10402304942684,0
4.35,25.8731232000991,0,-991.872878466619,6.24638420477207,0,0.653526209712745,0,0.0952419659441655,0,0,-9.8039696628406,0,1,6.04388166900288,0,1.70760256251228,0,0.0952419659441655,0
4.4,26.1750260882188,0,-991.788208642089,6.22694457931217,0,0.656132736283453,0,0.0857366263955443,0,0,-9.54457705263648,0,1,6.03194773570066,0,1.67957002688893,0,0.0857366263955443,0
4.45,26.4762910968807,0,-991.70488143623,6.20673032204562,0,0.658156314376975,0,0.0756158729576626,0,0,-9.31332264895785,0,1,6.01840230593125,0,1.65393612594811,0,0.0756158729576626,0
4.5,26.7768431292287,0,-991.622771516261,6.18598326012312,0,0.659610861439207,0,0.0649876487060812,0,0,-9.11181464281531,0,1,6.00346632718046,0,1.6309100040966,0,0.0649876487060812,0
4.55,27.0766183751318,0,-991.541744122752,6.16494501109416,0,0.66050948572572,0,0.0539589614016445,0,0,-8.9413533323702,0,1,5.98736963098436,0,1.61065970102767,0,0.0539589614016445,0
4.6,27.3755646538982,0,-991.461657102023,6.14385446393503,0,0.660864181451694,0,0.0426359280952194,0,0,-8.80293375110226,0,1,5.97034691769931,0,1.59331315900504,0,0.0426359280952194,0
4.65,27.6736415633892,0,-991.382362875185,6.12294537446216,0,0.660685814624477,0,0.0311238450168706,0,0,-8.6972481197815,0,1,5.95263403698107,0,1.57895972908366,0,0.0311238450168706,0
4.7,27.9708204515314,0,-991.303710321911,6.10244408556917,0,0.659984356633166,0,0.0195272360666563,0,0,-8.62468811884596,0,1,5.93446460912099,0,1.56765205692752,0,0.0195272360666563,0
4.75,28.2670842280076,0,-991.225546562711,6.08256738177187,0,0.658769320446908,0,0.00794984242639539,0,0,-8.58534709833936,0,1,5.91606701396749,0,1.55940823955852,0,0.00794984242639539,0
4.8,28.5624270348476,0,-991.147718628622,6.06352048716654,0,0.657050354480504,0,-0.00350547530855932,0,0,-8.57902243708519,0,1,5.89766175876323,0,1.55421415700443,0,-0.00350547530855932,0
4.85,28.8568537948837,0,-991.070075011695,6.0454952159671,0,0.654837950866348,0,-0.0147369429385544,0,0,-8.60521833284545,0,1,5.87945922387755,0,1.55202589634875,0,-0.0147369429385544,0
4.9,29.1503796567378,0,-990.99246709343,6.02866828512215,0,0.652144227221152,0,-0.0256441996616099,0,0,-8.66314935327567,0,1,5.86165777592646,0,1.55277219934423,0,-0.0256441996616099,0
4.95,29.4430293542963,0,-990.914750451421,6.01319979894251,0,0.648983743411365,0,-0.036128753251264,0,0,-8.75174510625972,0,1,5.84444223082382,0,1.55635687802558,0,-0.036128753251264,0
5,29.7348364976302,0,-990.836786046945,5.99923191601344,0,0.645374316921861,0,-0.0460945649465142,0,0,-8.8696564002371,0,1,5.82798264450253,0,1.5626611553481,0,-0.0460945649465142,0
5.05,30.0258428111193,0,-990.758441298064,5.98688770874679,0,0.641337802055667,0,-0.0554487607692383,0,0,-9.01526326250877,0,1,5.8124334059643,0,1.571545899654,0,-0.0554487607692383,0
5.1,30.3160973332242,0,-990.679591044099,5.97627022560171,0,0.636900799371601,0,-0.0641024615652905,0,0,-9.18668516769836,0,1,5.79793260555434,0,1.58285373269408,0,-0.0641024615652905,0
5.15,30.6056555909727,0,-990.6001184081,5.96746176515306,0,0.632095262696848,0,-0.0719717198358758,0,0,-9.38179380039402,0,1,5.78460165054364,0,1.59641100103176,0,-0.0719717198358758,0
5.2,30.8945787608213,0,-990.519915564193,5.96052336975324,0,0.626958972046692,0,-0.0789785472189197,0,0,-9.59822863579221,0,1,5.77254509992026,0,1.61202960996098,0,-0.0789785472189197,0
5.25,31.1829328261554,0,-990.438884416524,5.95549454450636,0,0.621535842229268,0,-0.0850520121984957,0,0,-9.83341556981564,0,1,5.76185069049316,0,1.6295087275876,0,-0.0850520121984957,0
5.3,31.4707877403026,0,-990.356937195948,5.95239320470625,0,0.615876039216379,0,-0.0901293832515988,0,0,-10.0845887654295,0,1,5.75258952681766,0,1.64863637442032,0,-0.0901293832515988,0
5.35,31.758216602575,0,-990.273996979641,5.95121585189177,0,0.610035879900981,0,-0.0941572882656923,0,0,-10.3488158045769,0,1,5.74481640795961,0,1.66919092059969,0,-0.0941572882656923,0
5.4,32.0452948535188,0,-990.189998137593,5.9519379754033,0,0.604077495940709,0,-0.0970928568490223,0,0,-10.6230261454983,0,1,5.73857026469981,0,1.69094251861294,0,-0.0970928568490223,0
5.45,32.3320994942477,0,-990.104886708417,5.95451467297871,0,0.59806824918832,0,-0.098904808362665,0,0,-10.9040427840131,0,1,5.73387468148885,0,1.71365450379797,0,-0.098904808362665,0
5.5,32.6187083334749,0,-990.018620705204,5.95888148071529,0,0.592079894762659,0,-0.0995744454480678,0,0,-11.188616906257,0,1,5.73073847840737,0,1.7370847978999,0,-0.0995744454480678,0
5.55,32.9051992646512,0,-989.931170350358,5.9649553998486,0,0.586187497965202,0,-0.0990965108667987,0,0,-11.4734652020252,0,1,5.72915632972973,0,1.76098735216114,0,-0.0990965108667987,0
5.6,33.1916495744948,0,-989.842518236548,5.97263610542749,0,0.580468122652905,0,-0.0974798649802541,0,0,-11.7553093859304,0,1,5.7291093976196,0,1.78511366567484,0,-0.0974798649802541,0
5.65,33.4781352831851,0,-989.752659409163,5.9818073202084,0,0.574999320805471,0,-0.0947479425191272,0,0,-12.030917352767,0,1,5.73056596219394,0,1.809214411829,0,-0.0947479425191272,0
5.7,33.7647305156458,0,-989.661601364152,5.99233833598922,0,0.569857465177668,0,-0.0909389507018506,0,0,-12.2971452793738,0,1,5.73348203283239,0,1.83304120051157,0,-0.0909389507018506,0
5.75,34.0515069026955,0,-989.569363953922,6.00408566410763,0,0.565115978285999,0,-0.0861057764282642,0,0,-12.5509798841693,0,1,5.73780193026863,0,1.85634849633964,0,-0.0861057764282642,0
5.8,34.3385330104588,0,-989.475979193175,6.01689479681787,0,0.560843520662358,0,-0.0803155782279635,0,0,-12.7895799739324,0,1,5.74345883466101,0,1.87889570365076,0,-0.0803155782279635,0
5.85,34.6258737963532,0,-989.381490956317,6.03060206154635,0,0.557102208444676,0,-0.0736490487414209,0,0,-13.0103163517144,0,1,5.75037530135253,0,1.90044941763147,0,-0.0736490487414209,0
5.9,34.9135900902234,0,-989.285954558406,6.04503655038602,0,0.55394593418807,0,-0.0661993454307406,0,0,-13.210809135721,0,1,5.75846375309786,0,1.92078582818711,0,-0.0661993454307406,0
5.95,35.201738099818,0,-989.189436212621,6.06002210739814,0,0.551418864666568,0,-0.0580707004464789,0,0,-13.3889615511121,0,1,5.76762696471513,0,1.93969324955139,0,-0.0580707004464789,0
6,35.4903689407687,0,-989.092012358936,6.07537935615806,0,0.54955418504163,0,-0.0493767344427727,0,0,-13.542989307774,0,1,5.77775856284394,0,1.95697473489357,0,-0.0493767344427727,0
6.05,35.7795281925169,0,-988.993768861025,6.09092774939043,0,0.548373150053007,0,-0.0402385128330364,0,0,-13.6714447679049,0,1,5.78874356910857,0,1.97245072209616,0,-0.0402385128330364,0
6.1,36.0692554831476,0,-988.89480007145,6.1064876214646,0,0.547884490133724,0,-0.0307823956383508,0,0,-13.7732352360124,0,1,5.80045901882615,0,1.98596164528621,0,-0.0307823956383508,0
6.15,36.3595841077486,0,-988.795207768666,6.12188222304454,0,0.548084204200203,0,-0.0211377428225754,0,0,-13.8476348664032,0,1,5.81277468885078,0,1.99737043744477,0,-0.0211377428225754,0
6.2,36.650540686568,0,-988.695099973295,6.13693971548997,0,0.548955752267358,0,-0.0114345450274954,0,0,-13.8942898727772,0,1,5.82555396673126,0,2.00656484326004,0,-0.0114345450274954,0
6.25,36.9421448707517,0,-988.594589655237,6.15149510094305,0,0.550470641178688,0,-0.00180105426301045,0,0,-13.9132169323337,0,1,5.83865488882422,0,2.01345945897479,0,-0.00180105426301045,0
6.3,37.2344091046474,0,-988.493793347328,6.16539206270554,0,0.552589376966186,0,0.00763851006546797,0,0,-13.9047948925089,0,1,5.85193136736245,0,2.01799741776043,0,0.00763851006546797,0
6.35,37.5273384544092,0,-988.392829685169,6.17848468980776,0,0.555262739043598,0,0.0167661075652697,0,0,-13.8697501008366,0,1,5.8652346160554,0,2.02015164534364,0,0.0167661075652697,0
6.4,37.8209305128115,0,-988.291817896299,6.19063905984105,0,0.558433315881401,0,0.0254718104810896,0,0,-13.8091358761806,0,1,5.87841477122325,0,2.01992562115053,0,0.0254718104810896,0
6.45,38.1151753896854,0,-988.190876264758,6.20173465533369,0,0.562037230097986,0,0.0336554697519482,0,0,-13.7243068122225,0,1,5.89132269163026,0,2.01735359475366,0,0.0336554697519482,0
6.5,38.4100557962001,0,-988.090120599151,6.21166559125485,0,0.566005973805646,0,0.0412280718880899,0,0,-13.6168887427167,0,1,5.90381190616133,0,2.01250022524987,0,0.0412280718880899,0
6.55,38.7055472293326,0,-987.989662733472,6.22034163457672,0,0.570268272969093,0,0.0481127600649614,0,0,-13.4887452960571,0,1,5.91574066543366,0,2.00545963144071,0,0.0481127600649614,0
6.6,39.0016182603922,0,-987.889609090002,6.22768900105335,0,0.574751902452959,0,0.054245508652511,0,0,-13.3419420203172,0,1,5.92697404246593,0,1.9963538622071,0,0.054245508652511,0
6.65,39.298230928507,0,-987.790059332572,6.23365091924394,0,0.57938538093566,0,0.0595754559688765,0,0,-13.1787090683293,0,1,5.93738601959342,0,1.98533081801733,0,0.0595754559688765,0
6.7,39.5953412367197,0,-987.691105136449,6.23818795703172,0,0.584099486182263,0,0.064064914365407,0,0,-13.0014033977364,0,1,5.94686149461045,0,1.97256167481109,0,0.064064914365407,0
6.75,39.8928997449657,0,-987.592829098057,6.24127811116137,0,0.588828545266548,0,0.0676890889574858,0,0,-12.8124713681391,0,1,5.95529813900109,0,1.95823787936831,0,0.0676890889574858,0
6.8,40.1908522509365,0,-987.495303803933,6.24291666535698,0,0.593511470025067,0,0.0704355457686335,0,0,-12.6144125135047,0,1,5.96260804508067,0,1.94256779968742,0,0.0704355457686335,0
6.85,40.4891405468448,0,-987.398591073837,6.24311582714758,0,0.598092524090614,0,0.0723034763659491,0,0,-12.4097451414014,0,1,5.96871910655975,0,1.92577312410946,0,0.0723034763659491,0
6.9,40.7877032375976,0,-987.302741388137,6.2419041574434,0,0.602521823143612,0,0.0733028091159242,0,0,-12.2009742706184,0,1,5.97357608780527,0,1.90808510849872,0,0.0733028091159242,0
6.95,41.0864766039577,0,-987.207793504527,6.23932581006246,0,0.606755583566079,0,0.0734532171209996,0,0,-11.9905622745132,0,1,5.97714135003782,0,1.88974077163197,0,0.0734532171209996,0
7,41.3853954930434,0,-987.113774264259,6.23543960076322,0,0.610756145755511,0,0.0727830700682746,0,0,-11.780902457467,0,1,5.97939521687916,0,1.87097913529439,0,0.0727830700682746,0
7.05,41.6843942179922,0,-987.020698583373,6.23031792690837,0,0.614491806506385,0,0.0713283721558604,0,0,-11.5742956633172,0,1,5.98033597604453,0,1.85203759795713,0,0.0713283721558604,0
7.1,41.9834074488057,0,-986.928569620252,6.22404555972848,0,0.617936499929898,0,0.0691317215819302,0,0,-11.3729299031022,0,1,5.97997952763217,0,1.83314852006638,0,0.0691317215819302,0
7.15,42.2823710772214,0,-986.837379107244,6.21671833136201,0,0.621069368451558,0,0.0662413194420693,0,0,-11.1788628985828,0,1,5.97835870162198,0,1.8145360857977,0,0.0662413194420693,0
7.2,42.5812230398539,0,-986.747107831204,6.20844173852878,0,0.623874264806711,0,0.0627100479107941,0,0,-10.9940073696428,0,1,5.97552227728365,0,1.79641349156624,0,0.0627100479107941,0
7.25,42.8799040856828,0,-986.657726245678,6.19932948396142,0,0.62633922310249,0,0.0585946298369555,0,0,-10.8201188479299,0,1,5.97153374485909,0,1.77898049655389,0,0.0585946298369555,0
7.3,43.1783584761222,0,-986.569195196052,6.1895019756856,0,0.628455932473699,0,0.0539548748061582,0,0,-10.6587857746921,0,1,5.96646985499244,0,1.76242135584652,0,0.0539548748061582,0
7.35,43.4765346082555,0,-986.481466738305,6.17908480300744,0,0.630219241196422,0,0.0488530106373646,0,0,-10.5114216352614,0,1,5.96041900399368,0,1.74690314315439,0,0.0488530106373646,0
7.4,43.7743855542388,0,-986.394485031977,6.1682072067253,0,0.631626712875238,0,0.0433530943794218,0,0,-10.379258892917,0,1,5.95347950335549,0,1.73257445803679,0,0.0433530943794218,0
7.45,44.0718695122695,0,-986.308187288453,6.15700055970867,0,0.632678249958372,0,0.0375204932331502,0,0,-10.2633445073697,0,1,5.94575778032391,0,1.71956450240778,0,0.0375204932331502,0
7.5,44.3689501667749,0,-986.222504756673,6.1455968726363,0,0.633375793738301,0,0.0314214234242499,0,0,-10.1645368542643,0,1,5.93736655314179,0,1.70798250303796,0,0.0314214234242499,0
7.55,44.6655969575598,0,-986.137363729653,6.13412733840273,0,0.63372310443875,0,0.0251225337952211,0,0,-10.0835038984576,0,1,5.9284230202529,0,1.69791745081281,0,0.0251225337952211,0
7.6,44.9617852594869,0,-986.052686556825,6.12272092751277,0,0.633725620147222,0,0.0186905206246279,0,0,-10.0207225123252,0,1,5.91904709767265,0,1.68943812356854,0,0.0186905206246279,0
7.65,45.2574964758401,0,-985.968392648868,6.11150304569903,0,0.633390389310031,0,0.0121917607470526,0,0,-9.97647886836941,0,1,5.90935973326108,0,1.6825933572231,0,0.0121917607470526,0
7.7,45.5527180498182,0,-985.884399463528,6.10059426401731,0,0.632726068276564,0,0.00569195125854013,0,0,-9.95086987082667,0,1,5.89948132108147,0,1.677412529418,0,0.00569195125854013,0
7.75,45.847443399631,0,-985.800623462668,6.0901091307856,0,0.63174297292131,0,-0.000744254219060213,0,0,-9.94380562221657,0,1,5.88953023363786,0,1.67390622072418,0,-0.000744254219060213,0
7.8,46.1416717834288,0,-985.71698103252,6.0801550739126,0,0.630453171614284,0,-0.00705362072562327,0,0,-9.95501294666885,0,1,5.87962148473853,0,1.6720670203747,0,-0.00705362072562327,0
7.85,46.43540810082,0,-985.633389360671,6.07083140138476,0,0.628870605667534,0,-0.013174724395205,0,0,-9.98404001167609,0,1,5.86986553115082,0,1.6718704462127,0,-0.013174724395205,0
7.9,46.7286626380351,0,-985.549767264764,6.06222840691359,0,0.627011222773764,0,-0.0190483656065851,0,0,-10.0302621032061,0,1,5.86036721716636,0,1.67327595184897,0,-0.0190483656065851,0
7.95,47.0214507639106,0,-985.466035969159,6.05442658695904,0,0.624893108801106,0,-0.0246180039792799,0,0,-10.0928886156976,0,1,5.8512248627122,0,1.67622799770263,0,-0.0246180039792799,0
8,47.3137925838252,0,-985.382119826857,6.04749597450976,0,0.622536603562692,0,-0.0298302140282373,0,0,-10.1709713183643,0,1,5.84252949271842,0,1.6806571664687,0,-0.0298302140282373,0
8.05,47.6057125585428,0,-985.297946984869,6.04149559409557,0,0.619964386808191,0,-0.0346351580522047,0,0,-10.2634139526046,0,1,5.83436420306076,0,1.68648130746527,0,-0.0346351580522047,0
8.1,47.8972390946326,0,-985.213449991902,6.03647304151711,0,0.617201521672665,0,-0.0389870707057564,0,0,-10.3689832024275,0,1,5.82680365649812,0,1.69360669812623,0,-0.0389870707057564,0
8.15,48.1884041127712,0,-985.128566347713,6.03246419069605,0,0.614275444165545,0,-0.0428447477289254,0,0,-10.4863210610343,0,1,5.81991370057399,0,1.70192921451105,0,-0.0428447477289254,0
8.2,48.4792425998016,0,-985.043238993825,6.02949302888215,0,0.611215888995212,0,-0.0461720295199297,0,0,-10.613958592526,0,1,5.81375109840452,0,1.71133550600077,0,-0.0461720295199297,0
8.25,48.7697921499514,0,-984.957416745442,6.02757162021516,0,0.60805474410718,0,-0.0489382686801174,0,0,-10.7503310587301,0,1,5.80836336259284,0,1.72170417225019,0,-0.0489382686801174,0
8.3,49.0600925001136,0,-984.87105466446,6.02670019635284,0,0.604825828760226,0,-0.0511187693873867,0,0,-10.8937943481002,0,1,5.80378868215661,0,1.7329069428927,0,-0.0511187693873867,0
8.35,49.3501850635883,0,-984.784114373373,6.02686737157076,0,0.601564592751316,0,-0.0526951855226164,0,0,-11.0426426074321,0,1,5.80005593230903,0,1.74480986237559,0,-0.0526951855226164,0
8.4,49.640112466176,0,-984.696564309737,6.02805047844852,0,0.598307737477991,0,-0.0536558639442696,0,0,-11.195126938818,0,1,5.79718475717339,0,1.75727448358131,0,-0.0536558639442696,0
8.45,49.9299180880336,0,-984.608379920644,6.03021601901288,0,0.595092762819007,0,-0.0539961192398552,0,0,-11.3494749850739,0,1,5.79518571602516,0,1.77015907451762,0,-0.0539961192398552,0
8.5,50.2196456142477,0,-984.519543796443,6.03332022504172,0,0.591957447212749,0,-0.0537184267337022,0,0,-11.5039111882278,0,1,5.79406048443047,0,1.78331984230799,0,-0.0537184267337022,0
8.55,50.5093385966776,0,-984.43004574276,6.03730972016804,0,0.588939271682761,0,-0.0528325215402681,0,0,-11.6566774690916,0,1,5.79380210267183,0,1.79661217797312,0,-0.0528325215402681,0
8.6,50.7990400292648,0,-984.339882789703,6.04212227547515,0,0.586074801741853,0,-0.0513553930435393,0,0,-11.8060540430992,0,1,5.79439526509612,0,1.80989192408314,0,-0.0513553930435393,0
8.65,51.0887919387285,0,-984.249059137114,6.04768764945,0,0.583399043927445,0,-0.0493111663531377,0,0,-11.9503800601424,0,1,5.79581664545449,0,1.82301666532101,0,-0.0493111663531377,0
8.7,51.3786349923535,0,-984.157586034766,6.05392850245827,0,0.580944796004554,0,-0.0467308650031927,0,0,-12.0880737356998,0,1,5.79803525487514,0,1.83584703940888,0,-0.0467308650031927,0
8.75,51.6686081244541,0,-984.065481596612,6.06076137531045,0,0.578742011452535,0,-0.0436520523537277,0,0,-12.2176516285973,0,1,5.80101283075318,0,1.84824806281843,0,-0.0436520523537277,0
8.8,51.95874818305,0,-983.972770548558,6.06809772098852,0,0.576817199584714,0,-0.0401183527243855,0,0,-12.3377467185,0,1,5.80470425646873,0,1.860090462353,0,-0.0401183527243855,0
8.85,52.2490895983256,0,-983.879483909763,6.07584497817922,0,0.575192882431721,0,-0.0361788571021068,0,0,-12.4471249446065,0,1,5.80905801335551,0,1.87125200022227,0,-0.0361788571021068,0
8.9,52.539664074549,0,-983.785658608166,6.0839076748975,0,0.573887128294836,0,-0.0318874221552995,0,0,-12.5446998864642,0,1,5.81401666762572,0,1.88161877681679,0,-0.0318874221552995,0
8.95,52.8305003072847,0,-983.69133703183,6.09218855017414,0,0.572913179649428,0,-0.0273018750745464,0,0,-12.629545298309,0,1,5.81951739589944,0,1.89108649223475,0,-0.0273018750745464,0
9,53.1216237279346,0,-983.596566518674,6.10058968152305,0,0.572279189918785,0,-0.0224831402519202,0,0,-12.7009052492995,0,1,5.82549255348098,0,1.8995616449216,0,-0.0224831402519202,0
9.05,53.4130562778484,0,-983.501398788348,6.10901360570816,0,0.571988079677662,0,-0.0174943068183742,0,0,-12.7582016723271,0,1,5.83187028948277,0,1.90696264375283,0,-0.0174943068183742,0
9.1,53.704816214434,0,-983.405889321173,6.11736442021569,0,0.572037518273364,0,-0.0123996584085633,0,0,-12.8010391821137,0,1,5.83857521225838,0,1.91322080869805,0,-0.0123996584085633,0
9.15,53.9969179518488,0,-983.310096690372,6.12554885283533,0,0.572420031908387,0,-0.00726368807144446,0,0,-12.8292070869489,0,1,5.84552910735012,0,1.91828123499259,0,-0.00726368807144446,0
9.2,54.2893719389115,0,-983.214081854996,6.13347728689572,0,0.573123234183043,0,-0.0021501218909654,0,0,-12.8426785852216,0,1,5.85265170830702,0,1.92210349660913,0,-0.0021501218909654,0
9.25,54.5821845768409,0,-983.117907422174,6.14106473002185,0,0.574130170232952,0,0.00287902542760796,0,0,-12.8416072051977,0,1,5.85986151835913,0,1.92466216680848,0,0.00287902542760796,0
9.3,54.8753581792562,0,-983.02163688831,6.14823171481351,0,0.575419761190917,0,0.00776434100929876,0,0,-12.8263206115308,0,1,5.86707667816656,0,1.92594713663738,0,0.00776434100929876,0
9.35,55.1688909765604,0,-982.925333869734,6.15490512060754,0,0.576967332003928,0,0.0124498304503747,0,0,-12.7973119621347,0,1,5.87421587185795,0,1.925963716349,0,0.0124498304503747,0
9.4,55.4627771663635,0,-982.829061333921,6.16101890649153,0,0.578745202845085,0,0.0168836437209782,0,0,-12.7552290518888,0,1,5.88119926052906,0,1.92473250970485,0,0.0168836437209782,0
9.45,55.7570070109869,0,-982.732880842787,6.166514746976,0,0.580723322616702,0,0.0210186969338812,0,0,-12.7008615232073,0,1,5.88794942949681,0,1.92228905677363,0,0.0210186969338812,0
9.5,56.0515669823413,0,-982.636851819603,6.17134256318681,0,0.58286992241286,0,0.0248131805306173,0,0,-12.6351264562972,0,1,5.89439233310859,0,1.91868324692882,0,0.0248131805306173,0
9.55,56.3464399536092,0,-982.54103085085,6.17546094407184,0,0.585152167290269,0,0.0282309485808652,0,0,-12.5590526730848,0,1,5.90045821898206,0,1.91397850998601,0,0.0282309485808652,0
9.6,56.6416054362241,0,-982.445471033794,6.17883745387975,0,0.587536786206066,0,0.0312417880119945,0,0,-12.4737640980519,0,1,5.90608251235364,0,1.90825079952377,0,0.0312417880119945,0
9.65,56.9370398596587,0,-982.350221379673,6.1814488240071,0,0.589990662377437,0,0.0338215704729327,0,0,-12.3804625169636,0,1,5.9112066408539,0,1.90158738811449,0,0.0338215704729327,0
9.7,57.2327168905616,0,-982.255326281336,6.18328102916462,0,0.592481369407948,0,0.0359522930053227,0,0,-12.2804100616391,0,1,5.91577878055507,0,1.894085499194,0,0.0359522930053227,0
9.75,57.5286077868541,0,-982.160825052765,6.18432924962401,0,0.594977642083948,0,0.0376220165977613,0,0,-12.1749117269247,0,1,5.91975450554143,0,1.88585080440018,0,0.0376220165977613,0
9.8,57.8246817815641,0,-982.066751546442,6.18459772301945,0,0.597449774532191,0,0.0388247139333035,0,0,-12.0652981966588,0,1,5.92309732546701,0,1.87699581824559,0,0.0388247139333035,0
9.85,58.120906490468,0,-981.973133852846,6.18409949074725,0,0.599869942212499,0,0.0395600391528835,0,0,-11.9529092206828,0,1,5.92577909846724,0,1.86763822385365,0,0.0395600391528835,0
9.9,58.4172483370623,0,-981.879994084668,6.18285604539505,0,0.602212447783801,0,0.0398330332429247,0,0,-11.8390777469141,0,1,5.92778031021822,0,1.85789916414564,0,0.0398330332429247,0
9.95,58.7136729880203,0,-981.787348246624,6.18089688681509,0,0.604453894050002,0,0.039653778753697,0,0,-11.7251149732245,0,1,5.92909021370271,0,1.84790153234619,0,0.039653778753697,0
10,59.0101457921147,0,-981.695206190082,6.17825899542058,0,0.606573289829458,0,0.0390370170426334,0,0,-11.6122964451951,0,1,5.92970682814497,0,1.83776829406777,0,0.0390370170426334,0
10.05,59.3066322156073,0,-981.603571650172,6.17498623202595,0,0.608552096612345,0,0.0380017402183564,0,0,-11.501849289375,0,1,5.9296367994219,0,1.82762087067939,0,0.0380017402183564,0
10.1,59.6030982673112,0,-981.512442361633,6.17112867407912,0,0.610374225236664,0,0.0365707685585092,0,0,-11.394940638722,0,1,5.92889512786904,0,1.81757761033898,0,0.0365707685585092,0
10.15,59.8995109069137,0,-981.421810248445,6.16674189845849,0,0.61202599253315,0,0.0347703225165461,0,0,-11.2926672783697,0,1,5.92750477262462,0,1.8077523691734,0,0.0347703225165461,0
10.2,60.1958384306722,0,-981.331661681257,6.16188622114961,0,0.613496048007309,0,0.0326295966457771,0,0,-11.1960465162965,0,1,5.92549614438076,0,1.79825322083479,0,0.0326295966457771,0
10.25,60.4920508292457,0,-981.241977795833,6.1566259040983,0,0.614775280217623,0,0.0301803409690952,0,0,-11.1060082650625,0,1,5.92290650056069,0,1.7891813082516,0,0.0301803409690952,0
10.3,60.7881201131683,0,-981.152734865143,6.15102833938227,0,0.615856711666624,0,0.0274564536094653,0,0,-11.0233883074299,0,1,5.91977925847715,0,1.78062984701829,0,0.0274564536094653,0
10.35,61.0840206022721,0,-981.063904717388,6.14516322057594,0,0.616735389850297,0,0.0244935869488997,0,0,-10.9489227100143,0,1,5.91616324295038,0,1.77268328569318,0,0.0244935869488997,0
10.4,61.3797291762031,0,-980.975455192038,6.13910171082658,0,0.617408280716915,0,0.0213287682600403,0,0,-10.8832433445738,0,1,5.91211188520152,0,1.76541662443476,0,0.0213287682600403,0
10.45,61.6752254840108,0,-980.887350626021,6.13291561673252,0,0.617874169269596,0,0.0180000346909769,0,0,-10.8268744754232,0,1,5.90768238964563,0,1.75889489000427,0,0.0180000346909769,0
10.5,61.97049211161,0,-980.799552362349,6.12667657663586,0,0.618133570497681,0,0.0145460816971921,0,0,-10.7802303729978,0,1,5.9029348845577,0,1.75317276226459,0,0.0145460816971921,0
10.55,62.2655147066866,0,-980.712019273775,6.12045527142408,0,0.61818865231702,0,0.0110059235041984,0,0,-10.7436139169829,0,1,5.89793157155816,0,1.74829434494706,0,0.0110059235041984,0
10.6,62.5602820613352,0,-980.624708294495,6.11432066539034,0,0.618043170799894,0,0.00741856393649894,0,0,-10.717216156895,0,1,5.89273588754767,0,1.74429307164809,0,0.00741856393649894,0
10.65,62.8547861533603,0,-980.537574953378,6.10833928413656,0,0.617702416727897,0,0.00382267593871199,0,0,-10.7011168028394,0,1,5.88741169119975,0,1.74119173673721,0,0.00382267593871199,0
10.7,63.1490221477377,0,-980.450573902758,6.10257453592214,0,0.617173171438345,0,0.000256288311799317,0,0,-10.6952856237261,0,1,5.88202248447295,0,1.73900264007367,0,0.000256288311799317,0
10.75,63.4429883602128,0,-980.36365943739,6.09708608226605,0,0.616463669076984,0,-0.00324352144398654,0,0,-10.6995847339653,0,1,5.8766306779048,0,1.73772783408749,0,-0.00324352144398654,0
10.8,63.7366861854094,0,-980.276785998721,6.09192926300161,0,0.615583561727851,0,-0.00664092878473684,0,0,-10.7137717521484,0,1,5.87129690675684,0,1.7373594618249,0,-0.00664092878473684,0
10.85,64.030119992133,0,-980.189908660226,6.08715458036039,0,0.61454388346812,0,-0.0099016582821321,0,0,-10.7375038161101,0,1,5.86607940344587,0,1.73788017491962,0,-0.0099016582821321,0
10.9,64.3232969887875,0,-980.102983590057,6.08280724602357,0,0.613357009189189,0,-0.0129932736300547,0,0,-10.7703424378487,0,1,5.86103343015898,0,1.73926362106416,0,-0.0129932736300547,0
10.95,64.6162270619815,0,-980.015968487786,6.07892679442452,0,0.612036604028529,0,-0.015885460154511,0,0,-10.811759178916,0,1,5.85621077413938,0,1.74147499134984,0,-0.015885460154511,0
11,64.9089225914935,0,-979.928822992476,6.07554676491499,0,0.610597559460076,0,-0.0185502978008989,0,0,-10.861142122057,0,1,5.85165930686663,0,1.74447161875703,0,-0.0185502978008989,0
11.05,65.2013982447984,0,-979.841509059696,6.07269445472001,0,0.609055912481896,0,-0.0209625219270077,0,0,-10.9178031081397,0,1,5.84742260725015,0,1.74820362004437,0,-0.0209625219270077,0
11.1,65.4936707543384,0,-979.753991305516,6.07039074390622,0,0.607428744903192,0,-0.0230997686490331,0,0,-10.9809856989093,0,1,5.84353964801724,0,1.75261457425401,0,-0.0230997686490331,0
11.15,65.7857586806612,0,-979.666237315776,6.06864999287795,0,0.605734060450477,0,-0.024942800997518,0,0,-11.0498738160578,0,1,5.84004454370487,0,1.75764223196599,0,-0.024942800997518,0
11.2,66.0776821644536,0,-979.578217919233,6.06748001220117,0,0.603990638263139,0,-0.0264757117644682,0,0,-11.1236009958062,0,1,5.83696635805747,0,1.76321925025665,0,-0.0264757117644682,0
11.25,66.3694626703751,0,-979.489907423408,6.06688210384318,0,0.602217862305862,0,-0.0276860986833688,0,0,-11.2012601860228,0,1,5.83432896818324,0,1.76927394900584,0,-0.0276860986833688,0
11.3,66.661122725458,0,-979.401283812166,6.06685117221422,0,0.600435527259156,0,-0.0285652074988053,0,0,-11.2819140002522,0,1,5.8321509825215,0,1.77573108472695,0,-0.0285652074988053,0
11.35,66.9526856546856,0,-979.312328904238,6.06737590271306,0,0.598663622524652,0,-0.0291080385664331,0,0,-11.3646053303807,0,1,5.830445709511,0,1.78251263844112,0,-0.0291080385664331,0
11.4,67.2441753162067,0,-979.223028472071,6.06843900482027,0,0.596922097059517,0,-0.029313412887025,0,0,-11.4483682075097,0,1,5.82922117381178,0,1.78953861427082,0,-0.029313412887025,0
11.45,67.5356158384846,0,-979.133372320543,6.07001751615876,0,0.595230608791776,0,-0.0291839939245259,0,0,-11.5322387894666,0,1,5.82848017700451,0,1.79672784538511,0,-0.0291839939245259,0
11.5,67.8270313615332,0,-979.043354325279,6.07208316335671,0,0.593608263320427,0,-0.0287262621851667,0,0,-11.6152663437858,0,1,5.82822039985317,0,1.80399880369629,0,-0.0287262621851667,0
11.55,68.1184457842469,0,-978.952972430466,6.07460277500954,0,0.592073347426196,0,-0.0279504403331287,0,0,-11.6965240874331,0,1,5.82843454344958,0,1.81127040930111,0,-0.0279504403331287,0
11.6,68.4098825197116,0,-978.862228606297,6.07753874155023,0,0.59064306356732,0,-0.0268703675705689,0,0,-11.7751197395081,0,1,5.82911050683752,0,1.81846283510566,0,-0.0268703675705689,0
11.65,68.7013642602621,0,-978.771128766414,6.08084951640309,0,0.589333271971514,0,-0.0255033230905863,0,0,-11.8502056410324,0,1,5.83023159901532,0,1.82549830140583,0,-0.0255033230905863,0
11.7,68.9929127539626,0,-978.679682645992,6.08449015241929,0,0.588158247129021,0,-0.0238697995878594,0,0,-11.9209882970516,0,1,5.83177678351169,0,1.83230185445721,0,-0.0238697995878594,0
11.75,69.2845485940971,0,-978.587903641436,6.08841286727341,0,0.58713045542068,0,-0.0219932290433321,0,0,-11.9867372008551,0,1,5.83372095399283,0,1.83880212230897,0,-0.0219932290433321,0
11.8,69.5762910231877,0,-978.49580861301,6.09256763124208,0,0.586260360269712,0,-0.0198996642411645,0,0,-12.0467928082514,0,1,5.8360352395619,0,1.84493204044865,0,-0.0198996642411645,0
11.85,69.8681577529946,0,-978.4034176521,6.09690277058979,0,0.585556260589816,0,-0.0176174206793468,0,0,-12.1005735414777,0,1,5.83868733853007,0,1.85062953916501,0,-0.0176174206793468,0
11.9,70.1601648018919,0,-978.310753815251,6.10136557965512,0,0.585024167433146,0,-0.0151766846498644,0,0,-12.1475817173053,0,1,5.84164187945009,0,1.85583818403864,0,-0.0151766846498644,0
11.95,70.4523263509488,0,-978.217842827535,6.10590293466697,0,0.58466772265129,0,-0.0126090942414499,0,0,-12.1874083118824,0,1,5.84486080809301,0,1.86050776066733,0,-0.0126090942414499,0
12,70.7446546199771,0,-978.124712758258,6.11046190232745,0,0.584488162115155,0,-0.00994730081328759,0,0,-12.219736495391,0,1,5.84830379880661,0,1.86459479467043,0,-0.00994730081328759,0
12.05,71.0371597647163,0,-978.031393672475,6.11499033627997,0,0.584484324650878,0,-0.00722451906392714,0,0,-12.2443438921002,0,1,5.85192868832216,0,1.86806299822894,0,-0.00722451906392714,0
12.1,71.3298497962213,0,-977.937917262186,6.11943745474269,0,0.584652706401537,0,-0.00447407414773636,0,0,-12.2611035452027,0,1,5.85569192958067,0,1.87088363493143,0,-0.00447407414773636,0
12.15,71.6227305233796,0,-977.844316461483,6.12375439283023,0,0.584987558885878,0,-0.00172895435433091,0,0,-12.2699835901907,0,1,5.85954906255252,0,1.87303579551987,0,-0.00172895435433091,0
12.2,71.915805519319,0,-977.750625050282,6.12789472341501,0,0.585481027662725,0,0.000978622340121355,0,0,-12.2710456646891,0,1,5.8634551983513,0,1.87450657825938,0,0.000978622340121355,0
12.25,72.209076112263,0,-977.65687725151,6.13181494079252,0,0.586123327286764,0,0.00361762000865332,0,0,-12.2644421058596,0,1,5.86736551223066,0,1.87529116907276,0,0.00361762000865332,0
12.3,72.5025414011531,0,-977.563107326879,6.13547490191134,0,0.586902947213412,0,0.00615856766331778,0,0,-12.2504120079886,0,1,5.8712357403445,0,1.87539281824718,0,0.00615856766331778,0
12.35,72.7961982960827,0,-977.469349176425,6.13883822050447,0,0.587806882521722,0,0.00857390708182789,0,0,-12.2292762320407,0,1,5.87502267449038,0,1.87482271238918,0,0.00857390708182789,0
12.4,73.0900415832885,0,-977.375635947073,6.14187261010597,0,0.588820882805152,0,0.0108383004349973,0,0,-12.2014314752583,0,1,5.87868464849095,0,1.87359974231269,0,0.0108383004349973,0
12.45,73.3840640141096,0,-977.281999655343,6.14455017264617,0,0.589929712345252,0,0.0129288937764111,0,0,-12.1673435219029,0,1,5.88218200944064,0,1.87175016962377,0,0.0129288937764111,0
12.5,73.6782564169854,0,-977.188470829173,6.14684763007729,0,0.591117414731823,0,0.0148255337161234,0,0,-12.1275398057235,0,1,5.88547756679322,0,1.86930719684054,0,0.0148255337161234,0
12.55,73.9726078312067,0,-977.095078173504,6.14874649727413,0,0.592367575408284,0,0.0165109358692421,0,0,-12.0826014205888,0,1,5.88853701221862,0,1.86631044788034,0,0.0165109358692421,0
12.6,74.2671056607828,0,-977.001848263906,6.15023319526587,0,0.593663576172662,0,0.0179708048961024,0,0,-12.033154717981,0,1,5.8913293033335,0,1.8628053675863,0,0.0179708048961024,0
12.65,74.561735846458,0,-976.908805272036,6.15129910466798,0,0.594988836411344,0,0.0191939070865325,0,0,-11.9798626289249,0,1,5.89382700481446,0,1.85884255058439,0,0.0191939070865325,0
12.7,74.8564830535922,0,-976.815970726188,6.1519405599804,0,0.59632703673521,0,0.0201720974472492,0,0,-11.9234158437193,0,1,5.89600658103073,0,1.85447701110464,0,0.0201720974472492,0
12.75,75.1513308733559,0,-976.723363309555,6.15215878618494,0,0.597662321672197,0,0.0209003040987267,0,0,-11.864523975971,0,1,5.89784863516509,0,1.84976740642178,0,0.0209003040987267,0
12.8,75.4462620344568,0,-976.630998698216,6.15195977979529,0,0.59897947909207,0,0.0213764734564076,0,0,-11.8039068283904,0,1,5.89933809079808,0,1.84477522724346,0,0.0213764734564076,0
12.85,75.7412586224442,0,-976.538889440128,6.15135413717592,0,0.60026409504616,0,0.0216014801519208,0,0,-11.7422858671215,0,1,5.90046431307466,0,1.83956396868533,0,0.0216014801519208,0
12.9,76.0363023035254,0,-976.447044875788,6.15035683354102,0,0.601502683650404,0,0.021579005944388,0,0,-11.6803759995787,0,1,5.90122116780807,0,1.83419829542428,0,0.021579005944388,0
12.95,76.3313745497742,0,-976.355471100493,6.14898695656409,0,0.602682792485249,0,0.0213153919904211,0,0,-11.6188777383795,0,1,5.90160701815627,0,1.82874321423261,0,0.0213153919904211,0
13,76.62645686263,0,-976.264170967535,6.14726739896873,0,0.603793084701269,0,0.0208194688022494,0,0,-11.5584698214681,0,1,5.90162465978356,0,1.82326326639665,0,0.0208194688022494,0
13.05,76.9215309916589,0,-976.173144131033,6.14522451482822,0,0.60482339958499,0,0.0201023680505511,0,0,-11.49980234634,0,1,5.90128119664707,0,1.81782175155621,0,0.0201023680505511,0
13.1,77.2165791456858,0,-976.082387126565,6.14288774457749,0,0.605764793745816,0,0.0191773200898147,0,0,-11.4434904647488,0,1,5.90058786068457,0,1.81247999331414,0,0.0191773200898147,0
13.15,77.5115841935955,0,-975.991893487292,6.1402892139364,0,0.606609565331957,0,0.0180594407290163,0,0,-11.390108673659,0,1,5.89955977969064,0,1.80729665561369,0,0.0180594407290163,0
13.2,77.806529852339,0,-975.901653892829,6.13746331206274,0,0.607351263778767,0,0.0167655103686125,0,0,-11.3401857286873,0,1,5.89821569852621,0,1.80232711742037,0,0.0167655103686125,0
13.25,78.1014008599526,0,-975.811656347795,6.13444625430132,0,0.607984687551874,0,0.0153137482041527,0,0,-11.2942001979312,0,1,5.8965776594931,0,1.79762291172979,0,0.0153137482041527,0
13.3,78.3961831317077,0,-975.721886386712,6.13127563487808,0,0.608505872189595,0,0.0137235837821155,0,0,-11.2525766669503,0,1,5.89467064821076,0,1.79323123340559,0,0.0137235837821155,0
13.35,78.6908638978285,0,-975.632327301721,6.12798997481049,0,0.608912070697674,0,0.0120154278058393,0,0,-11.2156825996767,0,1,5.89252221165434,0,1.78919451887701,0,0.0120154278058393,0
13.4,78.9854318215589,0,-975.54296038948,6.12462827017494,0,0.609201728029079,0,0.0102104437452002,0,0,-11.1838258551044,0,1,5.89016205515831,0,1.78555009933437,0,0.0102104437452002,0
13.45,79.2798770966946,0,-975.453765213563,6.12122954569348,0,0.609374451017533,0,0.00833032151482944,0,0,-11.1572528555789,0,1,5.88762162516847,0,1.78232992778339,0,0.00833032151482944,0
13.5,79.5741915240349,0,-975.364719878656,6.11783241838248,0,0.609430974749603,0,0.00639705425939573,0,0,-11.1361473992293,0,1,5.88493368435469,0,1.77956037917891,0,0.00639705425939573,0
13.55,79.8683685665316,0,-975.275801312976,6.11447467574915,0,0.609373125978539,0,0.00443271912369625,0,0,-11.1206301063531,0,1,5.88213188539695,0,1.77726212187149,0,0.00443271912369625,0
13.6,80.1624033832176,0,-975.186985555372,6.11119287273392,0,0.609203783823026,0,0.00245926278905907,0,0,-11.1107584872015,0,1,5.87925034935023,0,1.7754500577722,0,0.00245926278905907,0
13.65,80.4562928422833,0,-975.098248043771,6.10802195128067,0,0.60892683767196,0,0.000498292521571232,0,0,-11.1065276164429,0,1,5.87632325400306,0,1.77413332797358,0,0.000498292521571232,0
13.7,80.7500355139215,0,-975.009563901787,6.10499488607768,0,0.608547141945222,0,-0.00142912650502912,0,0,-11.1078713974295,0,1,5.87338443709216,0,1.77331538005169,0,-0.00142912650502912,0
13.75,81.0436316437967,0,-974.920908220504,6.1021423596516,0,0.608070467150189,0,-0.00330266678735811,0,0,-11.1146643971289,0,1,5.87046701864497,0,1.77299409290509,0,-0.00330266678735811,0
13.8,81.3370831081855,0,-974.832256332675,6.09949246961969,0,0.607503446530786,0,-0.00510292605147955,0,0,-11.1267242300931,0,1,5.8676030461113,0,1.77316195474625,0,-0.00510292605147955,0
13.85,81.6303933520097,0,-974.743584076782,6.09707047051294,0,0.606853517533974,0,-0.0068116057555804,0,0,-11.1438144670341,0,1,5.86482316533479,0,1.77380628973306,0,-0.0068116057555804,0
13.9,81.9235673111147,0,-974.654868048645,6.09489855217869,0,0.606128857318327,0,-0.00841167937058987,0,0,-11.1656480404225,0,1,5.86215631981808,0,1.77490952869178,0,-0.00841167937058987,0
13.95,82.2166113202604,0,-974.566085838487,6.09299565635798,0,0.605338311598998,0,-0.00988754914644456,0,0,-11.1918911160033,0,1,5.85962948016692,0,1.7764495194194,0,-0.00988754914644456,0
14,82.5095330083672,0,-974.477216251585,6.09137733261279,0,0.604491316258559,0,-0.0112251899580518,0,0,-11.2221673952532,0,1,5.8572674050675,0,1.77839987214202,0,-0.0112251899580518,0
14.05,82.8023411826184,0,-974.388239510863,6.09005563435547,0,0.603597811347517,0,-0.0124122787351948,0,0,-11.25606280964,0,1,5.85509243466508,0,1.78073033582742,0,-0.0124122787351948,0
14.1,83.0950457030511,0,-974.299137439979,6.08903905530878,0,0.602668147343254,0,-0.0134383079244654,0,0,-11.2931305631713,0,1,5.8531243167776,0,1.78340720118669,0,-0.0134383079244654,0
14.15,83.3876573492815,0,-974.209893625685,6.08833250630491,0,0.601712983821479,0,-0.014294681417317,0,0,-11.3328964752417,0,1,5.85138006599597,0,1.78639372633621,0,-0.014294681417317,0
14.2,83.6801876810009,0,-974.120493558418,6.08793733191744,0,0.60074318100823,0,-0.0149747914134306,0,0,-11.3748645713412,0,1,5.84987385539596,0,1.7896505812132,0,-0.0149747914134306,0
14.25,83.9726488938626,0,-974.030924750273,6.08785136601668,0,0.599769685009916,0,-0.0154740747779168,0,0,-11.4185228649148,0,1,5.84861694031288,0,1.79313630693633,0,-0.0154740747779168,0
14.3,84.265053672343,0,-973.941176829726,6.08806902494818,0,0.598803407850022,0,-0.0157900475975105,0,0,-11.4633492697314,0,1,5.84761761340705,0,1.79680778636946,0,-0.0157900475975105,0
14.35,84.5574150411191,0,-973.851241612614,6.08858143666124,0,0.597855103759311,0,-0.0159223168457355,0,0,-11.5088175786895,0,1,5.8468811900716,0,1.80062072217716,0,-0.0159223168457355,0
14.4,84.849746216452,0,-973.761113149107,6.08937660376136,0,0.596935243457315,0,-0.0158725683285193,0,0,-11.5544034422267,0,1,5.84641002309805,0,1.80453011865592,0,-0.0158725683285193,0
14.45,85.1420604590112,0,-973.670787746577,6.09043959813185,0,0.596053888412727,0,-0.0156445303960274,0,0,-11.5995902775643,0,1,5.84620354541365,0,1.80849076358637,0,-0.0156445303960274,0
14.5,85.4343709295112,0,-973.580263968442,6.09175278446772,0,0.595220567266056,0,-0.0152439132672296,0,0,-11.6438750390514,0,1,5.84625833963,0,1.81245770628542,0,-0.0152439132672296,0
14.55,85.7266905484684,0,-973.489542609295,6.0932960697925,0,0.594444156728756,0,-0.0146783242122666,0,0,-11.6867737799976,0,1,5.84656823308638,0,1.81638672795273,0,-0.0146783242122666,0
14.6,86.0190318613195,0,-973.398626646784,6.09504717578834,0,0.593732769330071,0,-0.0139571592633526,0,0,-11.7278269376877,0,1,5.84712441702686,0,1.82023480031286,0,-0.0139571592633526,0
14.65,86.3114069100724,0,-973.307521170942,6.09698193056388,0,0.59309365036027,0,-0.0130914725652113,0,0,-11.7666042758256,0,1,5.84791558850788,0,1.82396052846729,0,-0.0130914725652113,0
14.7,86.6038271125915,0,-973.216233291852,6.09907457631492,0,0.592533086254038,0,-0.0120938249170925,0,0,-11.802709422467,0,1,5.8489281135866,0,1.82752457380277,0,-0.0120938249170925,0
14.75,86.8963031505425,0,-973.124772026754,6.10129808920153,0,0.592056326471569,0,-0.0109781134856157,0,0,-11.8357839465662,0,1,5.85014621028225,0,1.8308900527693,0,-0.0109781134856157,0
14.8,87.1888448669468,0,-973.033148167906,6.10362450767399,0,0.591667520671748,0,-0.00975938506621315,0,0,-11.8655109225114,0,1,5.85155214972788,0,1.83402290735734,0,-0.00975938506621315,0
14.85,87.4814611742142,0,-972.941374132709,6.10602526542892,0,0.591369672640131,0,-0.00845363562643298,0,0,-11.8916179393535,0,1,5.85312647383511,0,1.83689224318286,0,-0.00845363562643298,0
14.9,87.7741599734337,0,-972.849463797823,6.10847152516907,0,0.591164612045369,0,-0.00707759916358459,0,0,-11.9138795197121,0,1,5.85484822767683,0,1.83947063124303,0,-0.00707759916358459,0
14.95,88.0669480856117,0,-972.757432319182,6.11093450937377,0,0.591052984665881,0,-0.00564852914071965,0,0,-11.9321189223722,0,1,5.85669520465356,0,1.84173436964338,0,-0.00564852914071965,0
15,88.3598311954454,0,-972.665295939993,6.11338582436463,0,0.591034261270193,0,-0.0041839759196664,0,0,-11.9462093121817,0,1,5.85864420235071,0,1.84366370192616,0,-0.0041839759196664,0
15.05,88.6528138081085,0,-972.573071788968,6.11579777407094,0,0.59110676486738,0,-0.00270156368155431,0,0,-11.956074290775,0,1,5.86067128682056,0,1.84524298905054,0,-0.00270156368155431,0
15.1,88.9458992194116,0,-972.480777671162,6.1181436600613,0,0.591267715586804,0,-0.00121877031096073,0,0,-11.9616877916454,0,1,5.86275206284221,0,1.84646083258834,0,-0.00121877031096073,0
15.15,89.239089499571,0,-972.388431853917,6.12039806461107,0,0.591513292016589,0,0.000247286380154697,0,0,-11.9630733529285,0,1,5.86486194753327,0,1.84731014729622,0,0.000247286380154697,0
15.2,89.532385490683,0,-972.296052850467,6.12253711381729,0,0.591838707444594,0,0.00168005289443471,0,0,-11.9603027906843,0,1,5.8669764445185,0,1.84778818189882,0,0.00168005289443471,0
15.25,89.8257868178604,0,-972.203659203807,6.1245387180501,0,0.59223829911817,0,0.00306373181955347,0,0,-11.9534943042699,0,1,5.86907141571491,0,1.84789648765166,0,0.00306373181955347,0
15.3,90.1192919138347,0,-972.111269273436,6.12638278734106,0,0.592705628380995,0,0.00438345851156036,0,0,-11.9428100533594,0,1,5.87112334767949,0,1.84764083503156,0,0.00438345851156036,0
15.35,90.4128980566754,0,-972.018901027537,6.12805141964702,0,0.593233589364621,0,0.00562546045051684,0,0,-11.9284532531371,0,1,5.87310960939693,0,1.84703107970542,0,0.00562546045051684,0
15.4,90.7066014201181,0,-971.926571843092,6.12952906029121,0,0.593814523812916,0,0.00677719744178933,0,0,-11.9106648400233,0,1,5.87500869836874,0,1.84608097973443,0,0.00677719744178933,0
15.45,91.0003971358413,0,-971.8342983163,6.13080263126339,0,0.594440339599539,0,0.00782748127452812,0,0,-11.8897197648981,0,1,5.87680047190998,0,1.84480796675642,0,0.00782748127452812,0
15.5,91.2942793668745,0,-971.742096085507,6.13186162945384,0,0.595102630558218,0,0.00876657389604822,0,0,-11.865922974132,0,1,5.87846636067073,0,1.84323287463309,0,0.00876657389604822,0
15.55,91.5882413911801,0,-971.649979668692,6.13269819329421,0,0.595792795375961,0,0.00958626360234145,0,0,-11.8396051407875,0,1,5.87998956157881,0,1.8413796297288,0,0.00958626360234145,0
15.6,91.8822756943134,0,-971.557962317295,6.1333071376768,0,0.596502153490411,0,0.0102799191672354,0,0,-11.8111182091803,0,1,5.8813552076477,0,1.83927490758483,0,0.0102799191672354,0
15.65,92.1763740699476,0,-971.466055887944,6.13368595741489,0,0.597222056172481,0,0.0108425222239436,0,0,-11.7808308156401,0,1,5.8825505124055,0,1.83694776125105,0,0.0108425222239436,0
15.7,92.4705277269455,0,-971.374270733354,6.13383479988627,0,0.597943991250558,0,0.0112706785632632,0,0,-11.7491236469007,0,1,5.88356488707135,0,1.83442922692305,0,0.0112706785632632,0
15.75,92.7647274015779,0,-971.282615613393,6.13375640786233,0,0.59865968022903,0,0.0115626093152903,0,0,-11.716384795199,0,1,5.88439002902462,0,1.83175191279816,0,0.0115626093152903,0
15.8,93.0589634734254,0,-971.191097626997,6.13345603386328,0,0.59936116685766,0,0.0117181232316768,0,0,-11.6830051660235,0,1,5.88501998057062,0,1.82894957720419,0,0.0117181232316768,0
15.85,93.3532260834652,0,-971.099722165317,6.13294132768983,0,0.600040896506523,0,0.0117385714812024,0,0,-11.6493739906703,0,1,5.88545115748928,0,1.8260567020699,0,0.0117385714812024,0
15.9,93.6475052528271,0,-971.00849288619,6.13222219906131,0,0.600691785982171,0,0.011626786513307,0,0,-11.6158744915059,0,1,5.88568234734869,0,1.82310806770052,0,0.011626786513307,0
15.95,93.9417910007197,0,-970.917411709715,6.13131065753525,0,0.601307283674919,0,0.0113870066349267,0,0,-11.5828797432345,0,1,5.88571467805876,0,1.82013833460248,0,0.0113870066349267,0
16,94.236073460058,0,-970.826478834445,6.13022063209367,0,0.601881420147146,0,0.0110247879900708,0,0,-11.5507487686875,0,1,5.8855515576178,0,1.81718163778086,0,0.0110247879900708,0
16.05,94.5303429893871,0,-970.735692773454,6.12896777295351,0,0.602408849453492,0,0.010546905635007,0,0,-11.5198229027922,0,1,5.88519858645491,0,1.81427119852345,0,0.010546905635007,0
16.1,94.8245902797747,0,-970.645050409277,6.12756923829459,0,0.602884881623052,0,0.00996124537161309,0,0,-11.4904224535691,0,1,5.88466344418139,0,1.81143895820394,0,0.00996124537161309,0
16.15,95.1188064554462,0,-970.554547066525,6.12604346869625,0,0.603305506831021,0,0.00927668794480652,0,0,-11.4628436843162,0,1,5.88395575292663,0,1.80871523809864,0,0.00927668794480652,0
