Time,Inertial_X_Position,Inertial_Y_Position,Inertial_Z_Position,Body_U_Vel,Body_V_Vel,Body_W_Vel,Body_P_Vel,Body_Q_Vel,Body_R_Vel,Roll_Angle,Pitch_Angle,Yaw_Angle,Phase,Inertial_Vx,Inertial_Vy,Inertial_Vz,Eul_Phi_Dot,Eul_Theta_Dot,Eul_Psi_Dot,delta_R,delta_L,delta_s,delta_a,GAMMA_deg,Wind_X,Wind_Y,Wind_Z
0,0,0,-1000,6.15179615595966,0,0,0,0,0,2.99803789820525,-12.4583855616766,0,1,6.00693951430057,0,1.32712984143016,0,0,0,0,0.297862110401461,0,-0.297862110401461,0,0,0,0
0.05,0.298925251184447,0.000466467726921521,-999.930875433867,6.12121004757095,0.0237923627583882,0.130645271354299,-0.00495566621042419,0.0968078635196221,0.00686150620175264,2.98700869597945,-12.3142170906611,0.0179365397532701,1,5.95228218811407,0.0188155476967012,1.43416506656707,-0.00755267968396396,0.0963187881864834,0.0121769547859697,0,0.843038188592168,0,-0.843038188592168,0,0,0,0
0.1,0.595439473188948,0.00189682188679904,-999.856965564456,6.0965489080356,0.0439126011337781,0.261754726825656,-0.00993774544019487,0.167665296775853,0.0208806488675263,2.95270720290926,-11.9319293841959,0.0791745590429174,1,5.9102653122638,0.0385380575224882,1.51843050496148,-0.0161693538297069,0.166367106454834,0.0301408704756501,0,1,0,-1,0,0,0,0
0.15,0.89013438297054,0.00433282220813683,-999.779411872794,6.07557362204251,0.058927503860429,0.385933130952398,-0.014517346453512,0.213934425542118,0.0361255575288381,2.89487025515397,-11.384623578911,0.191468242297594,1,5.87919616943783,0.0590084264864248,1.58005761793927,-0.0239577057877636,0.211836952198172,0.0478248931682526,0,1,0,-1,0,0,0,0
0.2,1.1835073419833,0.00780633545843079,-999.699314386112,6.05678625896343,0.0686796204013679,0.497872393613037,-0.0185349117122388,0.237936430033361,0.0503320177379711,2.81683591263718,-10.7393920276888,0.350857609342306,1,5.85702963631484,0.0799970680076315,1.62051161852934,-0.0302872925462015,0.235175461603882,0.0630688311391877,0,1,0,-1,0,0,0,0
0.25,1.47594902535223,0.0123367285635379,-999.617674000336,6.03927856627951,0.0733804200058872,0.594120546694168,-0.0220146422802484,0.242636456601625,0.0635733548986928,2.7225774143937,-10.0555151461554,0.550804717261411,1,5.84157984236728,0.10123782803971,1.64223791168929,-0.0353188669301182,0.239342838926523,0.0761973055520606,0,1,0,-1,0,0,0,0
0.3,1.76774138440485,0.017929611099452,-999.535351773286,6.02255533268692,0.0732580736679758,0.672831822270181,-0.0250094791833221,0.231369733145995,0.0759124693170446,2.61549002969058,-9.38320935807408,0.785753142070327,1,5.83071537799768,0.122449702382221,1.64833442992026,-0.039285489127641,0.227664589913084,0.087563093672495,0,1,0,-1,0,0,0,0
0.35,2.05906470073985,0.0245765348783287,-999.453043656887,6.00638243635485,0.0685539979868005,0.73350821106988,-0.0275880094667243,0.207601986021404,0.0874035077685971,2.49825901945369,-8.76292755935742,1.05114864364907,1,5.82252455678482,0.143354124124066,1.64226103248944,-0.0424429698017614,0.203594835834722,0.0975077968076119,0,1,0,-1,0,0,0,0
0.4,2.35001163728849,0.0322554948571798,-999.371269126329,5.9906727877854,0.059516530059598,0.776725971091405,-0.0298235792980936,0.174726289732095,0.0980935769500004,2.37284547046265,-8.22528781437435,1.34336875520359,1,5.81542851816281,0.163689633429227,1.62757572969038,-0.045036817914258,0.170515190258509,0.106337381398483,0,1,0,-1,0,0,0,0
0.45,2.64060553327853,0.0409320870690217,-999.29037210899,5.97541484938497,0.0463939020370705,0.803860792803358,-0.0317859087845607,0.135901448835816,0.108024424736817,2.24054642738507,-7.79152108408175,1.65960098900094,1,5.80823812909248,0.183223402150118,1.60770837258005,-0.0472828261180545,0.131574343124041,0.114310221825138,0,1,0,-1,0,0,0,0
0.5,2.93082023520081,0.0505611553351335,-999.210532072244,5.96063723759416,0.0294277940837133,0.816827112051753,-0.0335352321715991,0.0939353573846674,0.117233972396373,2.10209551217707,-7.47431550254008,1.99770054172434,1,5.80016011721107,0.201759217615595,1.58578202697055,-0.0493576128431066,0.0895719715406619,0.121634145268718,0,1,0,-1,0,0,0,0
0.55,3.22059920104936,0.0610887458857099,-999.131782718945,5.94639777657384,0.00884807667785126,0.817844846017223,-0.0351187744917587,0.051213215820893,0.125757594374835,1.95778044320425,-7.27892917463525,2.35604833274086,1,5.79076418707362,0.219141832738999,1.56448777071268,-0.0513957877868229,0.0468870562535391,0.128469105762234,0,1,0,-1,0,0,0,0
0.6,3.50987228175105,0.0724541932982917,-999.054035599415,5.93278492633272,-0.0151310723548275,0.809242591679201,-0.0365692282178303,0.00966674122030087,0.133629087025441,1.80756233695026,-7.20444874910615,2.7334214677181,1,5.77992541841713,0.235257943372719,1.54601272998463,-0.0534911875834279,0.00544691139437356,0.134932807908625,0,1,0,-1,0,0,0,0
0.65,3.79856929236966,0.0845921820534272,-998.977106096161,5.91992193972122,-0.0423137157655616,0.793301687955727,-0.0379048122652702,-0.029222335666063,0.140881319803335,1.65118783021469,-7.24508601938634,3.12888172706815,1,5.76775554138508,0.250034350235748,1.532015871188,-0.0557004182898401,-0.0332696511938759,0.141107423881698,0,1,0,-1,0,0,0,0
0.7,4.08663010158365,0.0974346608509517,-998.900739608594,5.90796769611052,-0.0725235005079986,0.77214147646208,-0.0391304743957745,-0.0643927127136384,0.147546605360889,1.4882891700089,-7.39142621131027,3.54168344143911,1,5.75453389728077,0.263434039038959,1.52364252638429,-0.058047566104853,-0.0682031628092865,0.147046275524689,0,1,0,-1,0,0,0,0
0.75,4.3740114192147,0.110912525127773,-998.82463626213,5.89711164767658,-0.105603948085306,0.747643013582187,-0.0402398242337343,-0.095156376479435,0.153656850849152,1.31847001768109,-7.63156561557662,3.97119971630464,1,5.74064528979183,0.275450956220206,1.52156711395866,-0.0605293702004882,-0.0986667677663757,0.152779901857697,0,1,0,-1,0,0,0,0
0.8,4.66069073363104,0.124957020833924,-998.748472994246,5.88756298177552,-0.141417837674562,0.721406443481859,-0.0412174422723389,-0.121141650286051,0.159243561134069,1.14137630904573,-7.95209955790589,4.41686486839016,1,5.72652849523431,0.286104192799846,1.52605370482656,-0.0631204284699515,-0.124289659600664,0.158321295211389,0,1,0,-1,0,0,0,0
0.85,4.94666796791292,0.139500855005997,-998.671922357856,5.87953571302262,-0.179845822614243,0.694736120926633,-0.0420412850814413,-0.142232909182981,0.164337759565065,0.956752476728576,-8.3389421324576,4.87813064649591,1,5.7126364952419,0.29543215563619,1.53702541065101,-0.065778178431973,-0.144957142984716,0.163670298090895,0,1,0,-1,0,0,0,0
0.9,5.23196542823546,0.15447902365219,-998.594667787604,5.87323205913104,-0.220784422859166,0.668647199008706,-0.0426849854586324,-0.158511903932227,0.168969878939963,0.764483914822093,-8.77797546508052,5.35443394884506,1,5.69940770405605,0.303487144461539,1.55413546211944,-0.068447502383702,-0.160752252143888,0.168817251447202,0,1,0,-1,0,0,0,0
0.95,5.51662655458058,0.169829384387528,-998.516415380758,5.86882637840682,-0.264143543479612,0.643887588366583,-0.0431199190182254,-0.170204106438402,0.17316965948226,0.5646268926977,-9.25553819122949,5.84517406358985,1,5.68724650957299,0.310330596133125,1.57683485449542,-0.0710648749349701,-0.171902331795563,0.173746014912957,0,1,0,-1,0,0,0,0
1,5.80071388977135,0.185493010868181,-998.436902453492,5.86645144760753,-0.30984367637604,0.620969780655526,-0.0433169699143366,-0.177632126452475,0.17696607561152,0.357427288626376,-9.75877059234109,6.34969780121808,1,5.67651113042446,0.316029124095595,1.60443327636415,-0.073562017583413,-0.178732627387021,0.178436473517067,0,1,0,-1,0,0,0,0
1.05,6.0843065839656,0.201414369799717,-998.355903258029,5.86618819275097,-0.357812943701413,0.600207856396282,-0.0432479755003769,-0.181177135661244,0.180387301029332,0.143329566330046,-10.2758380430119,6.86729118856474,1,5.66750688178398,0.320651379684733,1.63615155898482,-0.0758690571295735,-0.181627820274074,0.182866625517635,0,1,0,-1,0,0,0,0
1.1,6.36749766337416,0.217541360777299,-998.27323230374,5.86805933558869,-0.407984134080752,0.5817559339016,-0.0428868626392377,-0.181248393981354,0.183460712799961,-0.077022606863405,-10.7960558359778,7.39717663427099,1,5.66048324298071,0.324265693101147,1.67116504346311,-0.0779172067999775,-0.181001604399805,0.187014324795204,0,1,0,-1,0,0,0,0
1.15,6.65039122077168,0.233825255989336,-998.188745733725,5.8720268904085,-0.460291866389616,0.565645256098526,-0.0422105085884534,-0.178260389209493,0.186212929441416,-0.30279277792052,-11.3099378379821,7.9385146601261,1,5.65563348777417,0.326938411300478,1.70863807954621,-0.079641003398546,-0.177273819306866,0.190858734100273,0,1,0,-1,0,0,0,0
1.2,6.93309963231747,0.250220572132364,-998.102341183489,5.87799308067669,-0.514669992468269,0.551817979695342,-0.0411993692208086,-0.172616738607033,0.188669874898319,-0.532963948451576,-11.8091894755815,8.49040943543053,1,5.653095986015,0.328732831198297,1.74775039377447,-0.0809801421683953,-0.170854293396367,0.194381533242775,0,1,0,-1,0,0,0,0
1.25,7.21574086808215,0.266684901660494,-998.013956503302,5.88580403944478,-0.571049322641619,0.540156479835058,-0.0398379193904581,-0.164699813887963,0.190856858886562,-0.76635554914039,-12.2866628238985,9.05191746486452,1,5.65295657075303,0.329708622750259,1.78771635770498,-0.0818809543407384,-0.162132365562399,0.197567917698562,0,1,0,-1,0,0,0,0
1.3,7.49843593895948,0.283178725326921,-997.923567670668,5.89525558344033,-0.629355729378777,0.530507592655736,-0.0381149469805918,-0.154864993494155,0.19279866382379,-1.00164418824658,-12.7362885085226,9.62205887178439,1,5.65525157573656,0.329921641798047,1.82779830929294,-0.0822975713455659,-0.151470996737706,0.200407416093431,0,1,0,-1,0,0,0,0
1.35,7.78130650671119,0.299665223208196,-997.831186161128,5.90610037124871,-0.689508657488179,0.522701687446575,-0.0360237356964114,-0.143438477146394,0.194519628913285,-1.23738733436477,-13.1529960412504,10.1998307904225,1,5.65997129077836,0.329424042600365,1.86731508476648,-0.0821928150811574,-0.139204414685226,0.202894547935664,0,1,0,-1,0,0,0,0
1.4,8.06447267367085,0.316110097187908,-997.736855989342,5.91805583497079,-0.751420045762002,0.516566801684679,-0.0335621636998646,-0.130717684383677,0.196043722644676,-1.47204919656578,-13.532631298103,10.784222430445,1,5.66706367111454,0.328264611665434,1.90564684657716,-0.0815388463291875,-0.125638322558705,0.205029334924938,0,1,0,-1,0,0,0,0
1.45,8.34805096184104,0.332481414249411,-997.640650580881,5.93081238262677,-0.81499364599061,0.511938305059355,-0.0307327370003162,-0.116973376449901,0.197394595881951,-1.70402814437618,-13.8718772345635,11.3742314028291,1,5.67643818812026,0.326489256086153,1.9422371768714,-0.0803175944291631,-0.111051819700498,0.206817670204787,0,1,0,-1,0,0,0,0
1.5,8.63215248626771,0.348749476857605,-997.542669590062,5.94404148393504,-0.880124711079541,0.508664703194053,-0.0275425690197912,-0.102452772375452,0.19859560880238,-1.93168506283033,-14.1681816802674,11.9688808954592,1,5.68796973739137,0.324141590214835,1.97659326774173,-0.0785209819954666,-0.0957003147972421,0.208271540879285,0,1,0,-1,0,0,0,0
1.55,8.91688132384063,0.36488672414282,-997.443035741261,5.95740336117415,-0.946700014395818,0.506610267223876,-0.0240033115271144,-0.0873830644759848,0.199669826259885,-2.15337206508231,-14.4196941857908,12.567237261821,1,5.70150253773959,0.321263573985488,2.00828489413773,-0.0761509502156619,-0.0798188458980066,0.209409091340773,0,1,0,-1,0,0,0,0
1.6,9.20233307570109,0.380867665479535,-997.3418917404,5.97055410203509,-1.01459815688071,0.505655197711261,-0.0201310375101447,-0.0719748691960476,0.200639977715606,-2.36746099194187,-14.6252124051862,13.1684275425404,1,5.71685396879307,0.317896164618318,2.03694271207174,-0.0732192845051074,-0.0636253522811101,0.210254509986373,0,1,0,-1,0,0,0,0
1.65,9.48859361918809,0.396668846332532,-997.239397279652,5.98315208946302,-1.08369011615302,0.505694013264822,-0.0159460736520755,-0.0564252724977603,0.201528379727839,-2.57237112299508,-14.7841373722937,13.7716563873028,1,5.73381830985718,0.314079951063121,2.06225628922112,-0.0697472381224991,-0.0473235658541321,0.210837721068593,0,1,0,-1,0,0,0,0
1.7,9.77573804380558,0.412268844888771,-997.135726141171,5.99486370403939,-1.15383999201121,0.506632805441529,-0.0114727788548982,-0.0409202425815081,0.202356821100414,-2.7665955189871,-14.8964362406515,14.3762217970529,1,5.75217035982361,0.309855747571767,2.08397215048241,-0.0657649533740822,-0.0311053023085893,0.211193867527225,0,1,0,-1,0,0,0,0
1.75,10.0638297651442,0.427648296978648,-997.0310633944,6.00536829863783,-1.22490590469862,0.508385929728078,-0.00673926553800744,-0.0256362850082453,0.203146413076952,-2.94872542195951,-14.962610574399,14.9815290776936,1,5.77166893648038,0.30526512935306,2.10189200951519,-0.0613106861752751,-0.0151520329184036,0.211362579715201,0,1,0,-1,0,0,0,0
1.8,10.3529198110654,0.442789946092372,-996.925602675429,6.01436247488401,-1.29674100540623,0.510872614013934,-0.00177706195881247,-0.0107413048112281,0.203917409310224,-3.11747216906581,-14.9836680647463,15.5871024000148,1,5.79206027154647,0.300350899355346,2.11587126030242,-0.0564298491955246,0.000364294804499687,0.211387038133557,0,1,0,-1,0,0,0,0
1.85,10.6430462756594,0.45767871489021,-996.819543535291,6.02156370869921,-1.36919456227323,0.514013866797904,0.00337928378937311,0.00360528450841314,0.204689002562786,-3.27168613560634,-14.9610955631881,16.1925934060043,1,5.81308133256531,0.295157480740919,2.12581772150999,-0.0511739001477392,0.0152811467613434,0.211312854028971,0,1,0,-1,0,0,0,0
1.9,10.9342339383052,0.472301794456558,-996.713088846099,6.02671338034689,-1.44211308926374,0.517729963051604,0.00869265453128424,0.0172531054562395,0.205479107019351,-3.41037231542566,-14.8968315248177,16.797786393331,1,5.8344631119841,0.289731234396958,2.13169056207299,-0.0455991131496448,0.0294459046127105,0.211186807847492,0,1,0,-1,0,0,0,0
1.95,11.2264940472515,0.486648747615914,-996.606442258772,6.02957926533721,-1.51534148953286,0.521938681795441,0.0141238629068065,0.0300618716632584,0.20630413652988,-3.53270226969244,-14.7932362962931,17.4025997454617,1,5.85593392549667,0.28412070469202,2.13349928985714,-0.0397652805437961,0.0427168430111818,0.211055499767798,0,1,0,-1,0,0,0,0
2,11.5198242691142,0.500711622864039,-996.499805712778,6.02995753855515,-1.58872418912739,0.526554371468441,0.019632188995373,0.0419027846463026,0.207178789903701,-3.63802232027096,-14.6530591153949,18.0070834460312,1,5.87722275519684,0.278376799489393,2.13130265690062,-0.0337343984405803,0.0549644203952215,0.210963976764407,0,1,0,-1,0,0,0,0
2.05,11.8142088071327,0.514485075814593,-996.393377005965,6.02767433712494,-1.66210624104081,0.531487832090065,0.0251759449652762,0.0526600936649152,0.208115854441827,-3.72585801938028,-14.4794011657076,18.6114127088993,1,5.89806265860349,0.272552912094082,2.12520732445033,-0.0275693904358792,0.0660727144960173,0.210954405359446,0,1,0,-1,0,0,0,0
2.1,12.109618691577,0.527966495463577,-996.287347440325,6.022586919564,-1.73533438373682,0.536646931200513,0.0307130534840967,0.0622326459326675,0.209126038199458,-3.7959150788924,-14.2756745069244,19.215877952789,1,5.91819424365066,0.266704993357502,2.11536613776148,-0.0213329201016887,0.0759408406424293,0.211064857713915,0,1,0,-1,0,0,0,0
2.15,12.4060122450896,0.541156132977563,-996.181899566499,6.01458445108411,-1.8082580422467,0.541937816627789,0.036201625897627,0.0705352733894006,0.210217840062044,-3.84807707645921,-14.0455571403864,19.82087153378,1,5.93736918471606,0.260891581712125,2.10197588250672,-0.0150863344003624,0.0844842100046886,0.211328271189353,0,1,0,-1,0,0,0,0
2.2,12.7033357238454,0.554057231071957,-996.077205055471,6.00358843840486,-1.88073026379098,0.5472665548158,0.0416005262997099,0.0774998913597867,0.211397464714981,-3.8824003599954,-13.7929448401158,20.426871804284,1,5.95535372873904,0.255173797665458,2.08527442881909,-0.00888876825861638,0.0916355131217394,0.211771628998347,0,1,0,-1,0,0,0,0
2.25,13.0015241322554,0.566676152329463,-995.973422729532,5.98955283265886,-1.95260858349969,0.552541008733051,0.0468699085016377,0.0830762202081199,0.212668787164102,-3.89910663912929,-13.5219006603573,21.0344251813695,1,5.97193211669833,0.249615307521011,2.06553721188906,-0.00279642672799685,0.0973453480398974,0.212415393670166,0,1,0,-1,0,0,0,0
2.3,13.3005022047139,0.579022504998,-995.870696785971,5.97246381600871,-2.02375581910368,0.557672772714757,0.0519717144312016,0.0872320798329976,0.21403336882989,-3.89857377909981,-13.2366032099277,21.6441269734322,1,5.98690982717334,0.244282259113535,2.04307304556014,0.00313795282640888,0.101582448675049,0.213273207689848,0,0.277800396053893,0,-0.277800396053893,0,0,0,0
2.35,13.6001847268781,0.591108920027782,-995.769156764124,5.95287121146375,-2.09237773081113,0.562564152355185,0.0574412172337562,0.0899793502169303,0.204512038909433,-3.87681644158611,-12.9423618540823,22.2403536292562,1,6.0000823410063,0.239231796963866,2.01816220920153,0.0119481643728463,0.103600836778031,0.203120511031879,0.774943260419332,0,0,0.774943260419332,0,0,0,0
2.4,13.9004771171946,0.602951770554566,-995.668916137435,5.93229179238742,-2.15439436944986,0.567227350044101,0.0633861809364851,0.0913916693142728,0.179667507203043,-3.82427119378815,-12.6458849064989,22.7850774535701,1,6.01128019448618,0.234560484046758,1.99116540711322,0.0245320294960219,0.103171375314107,0.177477217593017,1,0,0,1,0,0,0,0
2.45,14.2012781815408,0.614573960517529,-995.570066982355,5.91200497918779,-2.20713120818544,0.571757655534808,0.0689420754244131,0.09154943858114,0.152963603682698,-3.73607060458543,-12.3527012016232,23.2538941156564,1,6.02041127478222,0.230430942129176,1.96257166089154,0.0368208114543184,0.101322067279445,0.150149185936439,1,0,0,1,0,0,0,0
2.5,14.5024824125473,0.626006558767684,-995.472678332078,5.89238684355662,-2.2504708289033,0.576147078980238,0.0738638004617858,0.0905106732310422,0.127960101693094,-3.61456991289495,-12.0663781625773,23.6472164609966,1,6.02739467103516,0.227001997417697,1.93281419055911,0.0477842729510416,0.0983977791183603,0.124755714954472,1,0,0,1,0,0,0,0
2.55,14.8039808816596,0.637288294646602,-995.376798013404,5.87358368512375,-2.28483277774766,0.580360206239115,0.0781328641245414,0.0883363303276733,0.104587728076271,-3.46352070830417,-11.78985895917,23.9704418578886,1,6.03217417311672,0.224420002037215,1.90230767891975,0.0574564433900906,0.0944934425628404,0.101194880339506,1,0,0,1,0,0,0,0
2.6,15.1056626827306,0.648464963472235,-995.28245312289,5.85571863363569,-2.31063548882932,0.584366205903347,0.0817417261953445,0.0850968575084989,0.0827750470135955,-3.28655719434848,-11.5258171686373,24.2286692482602,1,6.03472685477537,0.222821123314498,1.87146559583805,0.0658847179714374,0.0897023745987646,0.0793606468413701,1,0,0,1,0,0,0,0
2.65,15.4074165857241,0.659588900377047,-995.189650244694,5.83889579080079,-2.32829412079158,0.588138945521806,0.0846924687593508,0.0808706072308533,0.06244912002486,-3.08716227579396,-11.2766611413632,24.4266905282877,1,6.03506253711826,0.222330683423598,1.84069395290567,0.0731268543946835,0.0841164470370949,0.0591450292015663,1,0,0,1,0,0,0,0
2.7,15.7091326462402,0.670718423655084,-995.098375972807,5.82320382615238,-2.33821859445306,0.591656770123917,0.0869954583711424,0.0757422847084611,0.0435361541082361,-2.86864179163836,-11.0445379713768,24.5689877357504,1,6.03322256371795,0.223062600934132,1.81038540170436,0.079248290536743,0.0778261965598428,0.0404399820212218,1,0,0,1,0,0,0,0
2.75,16.0107037375595,0.681917252822739,-995.008597716429,5.80871901475427,-2.34081183401155,0.594902032161838,0.0886680328673479,0.069801494132405,0.0259621201041993,-2.63410596968278,-10.8313372088371,24.6597352481211,1,6.02927793703415,0.22511893854431,1.78091383395956,0.0843197844721413,0.0709208986505633,0.0231390073711898,1,0,0,1,0,0,0,0
2.8,16.3120269751,0.693253906798148,-994.920264760128,5.79550772036603,-2.33646821373388,0.597860466264526,0.0897332399370134,0.0631414295263624,0.00965332746612849,-2.38645718957101,-10.6386943864974,24.7028061827956,1,6.02332689321884,0.228589560688739,1.75262960659231,0.0884153681409349,0.0634886266408991,0.00713848213027955,1,0,0,1,0,0,0,0
2.85,16.6130050075752,0.704801087767281,-994.833309545303,5.78362834192571,-2.32557221074615,0.600520497468402,0.0902186486079566,0.055857737082382,-0.00546305455570704,-2.12838317770057,-10.4679943795831,24.7017822122655,1,6.01549201291557,0.233551903783128,1.72585547586959,0.0916105982703662,0.0556163108437735,-0.00766128246670168,1,0,0,1,0,0,0,0
2.9,16.9135471543778,0.716635056409617,-994.747649136175,5.77313275336568,-2.30849726270612,0.602872560650079,0.0901552491881828,0.0480475573654524,-0.019458535878574,-1.86235481257506,-10.3203745869985,24.6599660543868,1,6.00591697852035,0.240070860456613,1.70088328622825,0.0939810828115303,0.0473898046595306,-0.0213552289748733,1,0,0,1,0,0,0,0
2.95,17.2135703743989,0.728835004178446,-994.6631868322,5.76406727657021,-2.28560482701767,0.604908494350266,0.0895764521412222,0.0398087399722882,-0.0324029082875645,-1.59062778647266,-10.1967279138394,24.5803959630119,1,5.99476309360498,0.248198777236072,1.67797142382737,0.0956012579799264,0.0388939564141479,-0.0340329646596064,1,0,0,1,0,0,0,0
3,17.5130000572607,0.741482428249095,-994.579813889055,5.75647323464618,-2.25724363604091,0.606621056227643,0.0885171920004219,0.0312392109956861,-0.0443639129634498,-1.31524744294155,-10.0977055490657,24.4658616195493,1,5.98220567857727,0.257975562910037,1.65734301447917,0.0965433896832678,0.0302126787442221,-0.0457783679198385,1,0,0,1,0,0,0,0
3.05,17.811770633486,0.754660514550031,-994.497411312,5.75038713771644,-2.22374914062601,0.6080035916509,0.0870131387856384,0.022436465287176,-0.0554069719018125,-1.03805618477579,-10.0237195633846,24.3189209050481,1,5.96843044938927,0.269428902403719,1.63918482144711,0.0968767733095856,0.0214290022732681,-0.0566693626001314,1,0,0,1,0,0,0,0
3.1,18.1098260051947,0.768453533974026,-994.415851688125,5.74584055638641,-2.18544313237016,0.609049872498344,0.085100016460637,0.0134971508673589,-0.0655949806943769,-0.760702920044657,-9.97494539510079,24.1419171101639,1,5.95362997464826,0.282574568650459,1.62364678103054,0.0966671071480446,0.0126250973709223,-0.0667778337263,1,0,0,1,0,0,0,0
3.15,18.4071198033393,0.782946256436743,-994.335001027387,5.74285973917256,-2.14263353334083,0.609754110661031,0.0828130257036477,0.00451671143485812,-0.074988158940699,-0.48465408179117,-9.95132433989705,23.9369962132922,1,5.93800029230131,0.297416822838703,1.61084210262704,0.0959760167642129,0.00388224686318681,-0.0761696603409462,1,0,0,1,0,0,0,0
3.2,18.7036154811643,0.798223386924217,-994.254720586162,5.74146502983556,-2.09561434065828,0.610111140216851,0.0801863665762813,-0.00441094586281686,-0.0836439536949282,-0.21120581849109,-9.95256620879554,23.7061239230576,1,5.92173775149308,0.313948891693074,1.60084785440725,0.0948607101403594,-0.0047192466270957,-0.0849048438160818,1,0,0,1,0,0,0,0
3.25,18.9992862564584,0.814369027070362,-994.174868651049,5.74167013903445,-2.04466571229552,0.61011675366586,0.0772528554771357,-0.0131937870867253,-0.0916169907768043,0.0585029936133155,-9.97815236249186,23.4511022391312,1,5.90503612936661,0.332153509203763,1.59370595494249,0.0933737460684868,-0.0131002328771459,-0.0930377129378713,1,0,0,1,0,0,0,0
3.3,19.294114917269,0.831466165155869,-994.095302264542,5.74348132227761,-1.99005417972019,0.609768170741993,0.0740436299660166,-0.0217420178336887,-0.0989590684393936,0.323477218869793,-10.027339366593,23.1735853347686,1,5.88808405735772,0.352003509485098,1.58942449409324,0.0915629009567441,-0.0211829768747782,-0.100617189946063,1,0,0,1,0,0,0,0
3.35,19.5880935071263,0.849596196746036,-994.015878877925,5.7468965130056,-1.93203297254628,0.609064612837803,0.0705879345592011,-0.0299684992560698,-0.105719187743271,0.582851674985335,-10.0991635388652,22.8750946058541,1,5.87106277754312,0.373462457208285,1.5879793122131,0.0894711217379224,-0.028891519647081,-0.107687104405621,1,0,0,1,0,0,0,0
3.4,19.8812229065287,0.868838477510836,-993.936457920081,5.75190445596019,-1.87084244015411,0.608007951714663,0.0669129803516068,-0.0377892282172921,-0.111943613997618,0.835877322000556,-10.1924466751664,22.5570327653073,1,5.85414423721988,0.396485302265086,1.5893157743626,0.0871365548531066,-0.0361521405399081,-0.114286544195311,1,0,0,1,0,0,0,0
3.45,20.1735123275829,0.889269909116692,-993.856902273875,5.75848388188406,-1.80671055524271,0.606603397714543,0.0630438712546696,-0.0451238903686201,-0.117675963757568,1.08190763344344,-10.305803244743,22.220696889353,1,5.83748951930887,0.421019045905149,1.59335068500534,0.0845926432569708,-0.0428939203023224,-0.120450234969372,1,0,0,1,0,0,0,0
3.5,20.4649787383439,0.910964558462386,-993.777079654248,5.76660276013065,-1.73985348447184,0.604860190040728,0.0590035896961915,-0.0518964893696614,-0.122957312083395,1.32038533497086,-10.4376493378764,21.8672903443778,1,5.82124759742369,0.447003406465648,1.5999742979712,0.0818682850087571,-0.0490494002589331,-0.126208941163628,1,0,0,1,0,0,0,0
3.55,20.7556462326578,0.933993309963856,-993.696863884198,5.77621766099452,-1.67047621170563,0.602792249848759,0.0548130347669527,-0.0580360500933345,-0.127826315044749,1.55082967922785,-10.5862136295925,21.4979335409192,1,5.80555439746,0.47437147389342,1.60905238585515,0.0789880482450464,-0.0545553288417729,-0.131589882969731,1,0,0,1,0,0,0,0
3.6,21.0455453602679,0.958423550082504,-993.61613606638,5.78727325454382,-1.59877319986603,0.600418756006458,0.0504911059836537,-0.0634773884864933,-0.132319342770456,1.77282441203005,-10.7495505924868,21.1136734758098,1,5.79053214220198,0.503050343471066,1.6204283421342,0.0759724381581489,-0.0593534828170072,-0.136617164687124,1,0,0,1,0,0,0,0
3.65,21.3347124306611,0.98431888284406,-993.534785649174,5.79970196750057,-1.52492907802615,0.597764603647049,0.0460548260416413,-0.0681619358053866,-0.136470618684376,1.98600657312913,-10.9255561498882,20.7154920356787,1,5.77628895154053,0.532961720438248,1.63392529788581,0.0728382120171727,-0.0633915466833896,-0.141312210478203,1,0,0,1,0,0,0,0
3.7,21.6231888026933,1.01173887471219,-993.452711386788,5.81342381434286,-1.44911934110714,0.594860707303781,0.0415194961338291,-0.0720386002189401,-0.140312360917734,2.19005626356318,-11.1119859078327,20.3043130459607,1,5.7629186682734,0.564022488505345,1.64934824290067,0.0695987382666956,-0.0666240299540173,-0.1456942037943,1,0,0,1,0,0,0,0
3.75,21.91102017049,1.04073882686369,-993.369822193263,5.82834641339395,-1.37151105037833,0.591744113735131,0.0368988776009156,-0.0750646443074138,-0.143874922239991,2.38468749974661,-11.3064760409614,19.8810080603558,1,5.75050087794152,0.596145236567237,1.66648614806249,0.0662643953314549,-0.0690131984078381,-0.149780526610321,1,0,0,1,0,0,0,0
3.8,22.1982558545191,1.07136957266032,-993.286037890283,5.8443651933425,-1.29226352388786,0.588457894742158,0.0322053938456026,-0.0772065528584367,-0.14718692519987,2.56964026089299,-11.5065668340196,19.4464008973617,1,5.73910109060734,0.629238739239927,1.68511409199438,0.0628430049718504,-0.0705299920062846,-0.153587194118492,1,0,0,1,0,0,0,0
3.85,22.4849481051377,1.10367729792674,-993.201289848387,5.86136379055302,-1.21152900696164,0.585050797470507,0.0274503465895925,-0.0784408617101006,-0.15027538951577,2.74467382007366,-11.7097287979926,19.0012709440489,1,5.72877105279107,0.663208388180751,1.70499540001907,0.0593402939231551,-0.0711548991610155,-0.15712927972298,1,0,0,1,0,0,0,0
3.9,22.7711514243475,1.13770338152677,-993.115521520682,5.87921463283678,-1.12945331399075,0.581576638874125,0.0226441406824459,-0.0787549154006648,-0.153165849104499,2.90956142935503,-11.9133911894238,18.5463552635008,1,5.71954915887872,0.697956572548226,1.72588380731076,0.0557603761868622,-0.0708787546117153,-0.160421324113549,1,0,0,1,0,0,0,0
3.95,23.0569219100001,1.17348425368457,-993.028688867497,5.89777970121493,-1.04617643386936,0.578093442024435,0.0177965117974653,-0.0781475192934341,-0.155882456495809,3.06408640545114,-12.11497266515,18.0823495618834,1,5.71146093316713,0.733383008452671,1.74752566057748,0.0521062468320603,-0.0697034265725838,-0.163477720980781,1,0,0,1,0,0,0,0
4,23.3423166253184,1.21105126953056,-992.940760669675,5.91691145775031,-0.961833092633495,0.574662324419027,0.0129167514881542,-0.0766294509215708,-0.158448072756514,3.20803963394556,-12.3119137052876,17.6099080941891,1,5.70451955630609,0.769385018886647,1.76966217354689,0.0483802766463695,-0.0676423583026492,-0.166313070709125,1,0,0,1,0,0,0,0
4.05,23.6273929953645,1.2504305954706,-992.851718727436,5.93645392484155,-0.876553268068993,0.571346161827458,0.0080139242498285,-0.0742237958149354,-0.160884341451538,3.34121847758997,-12.5017103383665,17.1296426141046,1,5.69872641324364,0.805857767436958,1.79203175078595,0.0445846956163015,-0.0647209301186722,-0.168942492323231,1,0,0,1,0,0,0,0
4.1,23.9122082310414,1.29164310619143,-992.761557941081,5.95624389949413,-0.790462652288085,0.568208064783395,0.0030970714570125,-0.0709660752772624,-0.163211745608718,3.46342703819209,-12.6819486082903,16.6421205024122,1,5.69407164387875,0.842694451077512,1.81437239184996,0.0407220522014594,-0.0609766103393851,-0.171381883267869,1,0,0,1,0,0,0,0
4.15,24.196818780393,1.33470429043353,-992.670286269317,5.97611228497152,-0.703683059499135,0.565309717729279,-0.00182460264931794,-0.0669041376625005,-0.165449647135634,3.57447768342176,-12.8503391381787,16.1478622385295,1,5.69053468245176,0.879786459500542,1.83642418336993,0.0367956348847995,-0.0564588678996511,-0.17364811647798,1,0,0,1,0,0,0,0
4.2,24.4812798064037,1.37962416409188,-992.577924560728,5.99588552177999,-0.616332777394277,0.562709642100729,-0.0067415673499958,-0.062097790740407,-0.167616308662145,3.67419371127122,-13.0047510763542,15.6473384092793,1,5.68808477718393,0.917023510695343,1.85793188047759,0.0328098427035331,-0.0512288254766554,-0.175759164830366,1,0,0,1,0,0,0,0
4.25,24.7656446902206,1.42640718974624,-992.484506254061,6.01538709998706,-0.528526861734442,0.5604614533588,-0.011643828124321,-0.0566181606981569,-0.169728898347548,3.76241298811948,-13.1432446600284,15.1409664754053,1,5.68668148766987,0.954293774712302,1.87864757107467,0.0287704925207003,-0.045358639872045,-0.177734144601625,1,0,0,1,0,0,0,0
4.3,25.0499645587561,1.47505220237205,-992.390076943537,6.03443913521153,-0.440377374800505,0.558612187278933,-0.0165208188964944,-0.0505467729955409,-0.171803478785653,3.83899236386328,-13.2641016075295,14.6291075369921,1,5.68627516379931,0.991483999591046,1.89833340714935,0.0246850527463761,-0.0389306058887555,-0.179593272051317,1,0,0,1,0,0,0,0
4.35,25.3342878359704,1.52555234172495,-992.294693806439,6.05286399103357,-0.351993569382229,0.557200772000639,-0.0213613263848121,-0.0439743613079376,-0.173854981746192,3.90381264193065,-13.3658525542583,14.1120633511131,1,5.68680741621806,1.02847965507947,1.9167643770402,0.0205627960308148,-0.032035990666176,-0.181357730667228,1,0,0,1,0,0,0,0
4.4,25.6186598177847,1.57789499270231,-992.19842489181,6.0704859308582,-0.263482020872675,0.556256719004431,-0.0261534482340018,-0.0369994226238319,-0.175897171081508,3.95678386549963,-13.4473007838,13.5900738562404,1,5.6882115941252,1.0651651107956,1.93373108179798,0.016414866998732,-0.0247736168795406,-0.183049450797956,1,0,0,1,0,0,0,0
4.45,25.9031222714897,1.63206173582562,-992.101348271198,6.08713278227501,-0.174946710804503,0.555799098209957,-0.0308845856774865,-0.0297265485450819,-0.17794259667226,3.99785067569874,-13.5075415749175,13.0633154463711,1,5.69041329107964,1.10142386565585,1.94904246826672,0.0122542651427433,-0.0172482247314892,-0.184690808089011,1,0,0,1,0,0,0,0
4.5,26.187713061644,1.68802831081177,-992.003551054999,6.10263759661715,-0.0864890657868552,0.555835850045017,-0.0355414704943545,-0.0222645742068963,-0.180002542750131,4.02699750396801,-13.5459765867129,12.53190021251,1,5.69333090296642,1.13713884450919,1.96252846195335,0.00809574722900194,-0.00956865354486418,-0.186304251967316,1,0,0,1,0,0,0,0
4.55,26.4724658057105,1.74576459695104,-991.905128280993,6.11684028574601,0.00179204373966145,0.5563634712546,-0.0401102250351842,-0.0147245961935428,-0.182086974284184,4.04425337912556,-13.562322835165,11.99587633031,1,5.6968762638939,1.17219277583428,1.97404243496862,0.00395565762180836,-0.00184589325769491,-0.187911879958275,0.560399707708642,0,0,0.560399707708642,0,0,0,0
4.6,26.7574100868411,1.80523462954299,-991.806180795818,6.12963195660574,0.0888178527688912,0.557395914435814,-0.0449176378272075,-0.00721111497704876,-0.177898567419397,4.04700777610647,-13.5572609875509,11.4645780028947,1,5.70097712011654,1.20646800490465,1.98349730750804,-0.00200413375884807,0.00536203825584452,-0.183064791388879,0,0.15999340315384,0,-0.15999340315384,0,0,0,0
4.65,27.0425717217485,1.86639622662604,-991.706813669393,6.14100317108826,0.171940313279939,0.558921870286284,-0.0501222510004906,0.000188023310215884,-0.163692739838115,4.02853151219228,-13.5328015740159,10.962026115633,1,5.70555534215128,1.2398311385341,1.99081241238381,-0.0108244976472165,0.0116875009479949,-0.167937679419121,0,1,0,-1,0,0,0,0
4.7,27.3279725000594,1.92919992343392,-991.607135708827,6.15110924484014,0.24770289964921,0.560913867045854,-0.0557167474925813,0.00740253296290746,-0.138218934812398,3.9802531708207,-13.4917025488796,10.5194951236231,1,5.71052811482472,1.27212322266746,1.99592013638907,-0.0227577538388609,0.0169788224924662,-0.141270259730688,0,1,0,-1,0,0,0,0
4.75,27.6136289881003,1.99358760592963,-991.507260277362,6.16010840856098,0.314413236845342,0.56327629067215,-0.0609174722937805,0.0143615794475596,-0.114225876494191,3.89886990234942,-13.4356861439934,10.1511161247539,1,5.7157680012177,1.30315986703259,1.99871008041988,-0.0339262742440789,0.0220951997221668,-0.116164249003256,0,1,0,-1,0,0,0,0
4.8,27.8995521736786,2.05949199090943,-991.407303186677,6.16814046953852,0.372336085632598,0.565977607995904,-0.0656780756277645,0.0209878181822723,-0.0916630665363983,3.78665196319126,-13.3653120559087,9.85246555714854,1,5.72118007771451,1.3327625413698,1.99919088434798,-0.0442763546785315,0.0269955605133937,-0.0925844460536695,0,1,0,-1,0,0,0,0
4.85,28.1857482764562,2.12683716712552,-991.307378985987,6.1753085042625,0.421744543717738,0.568978448280677,-0.0699592151202579,0.0272115141899548,-0.0704794384061986,3.64600812529405,-13.2812586507685,9.61922621830836,1,5.72666876939881,1.36076488293005,1.99740426467878,-0.0537650532362822,0.031638359671738,-0.0704917216343125,0,1,0,-1,0,0,0,0
4.9,28.4722187503983,2.19553923794771,-991.207599334987,6.18168434245845,0.462919476024705,0.572233689526347,-0.0737287498418025,0.0329713147047559,-0.0506232469556767,3.47945447159588,-13.1843224113938,9.44719907761847,1,5.73213926367229,1.38701406026762,1.99342383977778,-0.0623604121614045,0.0359828923323422,-0.0498426653251019,0,1,0,-1,0,0,0,0
4.95,28.7589603586215,2.26550703070326,-991.108071450986,6.18731372604969,0.496148927833919,0.575694489744937,-0.076961802716082,0.0382147856900189,-0.0320420265294051,3.2895828885329,-13.0754138076125,9.33231577710766,1,5.73749898714744,1.41137206994199,1.98735334083954,-0.0700414473460378,0.0399904699431362,-0.0305894580144858,0,1,0,-1,0,0,0,0
5,29.0459653228884,2.33664286833093,-991.008896660175,6.19222112547909,0.521727480349563,0.579310174000207,-0.0796406959140146,0.0428986980506323,-0.0146826134516855,3.07902991645933,-12.955550040863,9.27065118197688,1,5.74265910748151,1.43371692560979,1.97932424346324,-0.0767979108395944,0.0436254216491644,-0.0126799623470617,0,1,0,-1,0,0,0,0
5.05,29.3332215478634,2.40884339696293,-990.91016908058,6.19641419515641,0.539955523827935,0.583029908328324,-0.0817547674527523,0.0469890683304045,0.00150877317348658,2.85044658690871,-12.8258451963766,9.25843538208769,1,5.7475360138385,1.45394369959896,1.96949288083999,-0.0826298429864132,0.0468559006144946,0.00394198856450302,0,1,0,-1,0,0,0,0
5.1,29.6207129178145,2.4820004611255,-990.811974460629,6.19988785114547,0.551138436864022,0.586804113479736,-0.0833000803256204,0.0504609743398327,0.0165863999426829,2.60646981438978,-12.6874983728737,9.29206461626133,1,5.75205272595364,1.47196538039718,1.95803712113135,-0.0875469399176542,0.0496544898274676,0.0193361332937133,0,1,0,-1,0,0,0,0
5.15,29.9084196609462,2.55600201655464,-990.714389192721,6.20262795728154,0.555585671634957,0.590585593018262,-0.0842790379278112,0.053298177841703,0.0306048455963197,2.34969582678255,-12.5417803566403,9.3681106844532,1,5.75614018230785,1.48771351519137,1.94515270762868,-0.0915677685932417,0.0519986145514228,0.033565190520331,0,1,0,-1,0,0,0,0
5.2,30.1963187741645,2.63073306926227,-990.617479515955,6.20461461033038,0.553609753766514,0.594330370230213,-0.0846999212242557,0.0554925938969756,0.043618794744467,2.08265602024083,-12.3900193716274,9.48332851936529,1,5.75973836230076,1.5011386141484,1.93104937019286,-0.0947188652648051,0.0538707783533155,0.0466941721381824,0,1,0,-1,0,0,0,0
5.25,30.4843844989974,2.70607662853884,-990.521300916679,6.20582502014348,0.545525212049452,0.597998245435793,-0.0845763640173436,0.0570436498704346,0.0556828083936672,1.80779551967877,-12.2335863783482,9.63466169984534,1,5.76279720483489,1.51221030190874,1.91594682022046,-0.0970337542578351,0.0552586463717192,0.058789639511701,0,1,0,-1,0,0,0,0
5.3,30.7725888377533,2.78191466108404,-990.425897729885,6.2062359865966,0.531647457610516,0.60155309894739,-0.0839267828600749,0.0579575768475956,0.0668510805960045,1.52745462151677,-12.0738803205131,9.81924579564094,1,5.7652772954846,1.52091721111354,1.90007073933368,-0.0985519227211423,0.0561550032318437,0.0699189389141873,0,1,0,-1,0,0,0,0
5.35,31.0609020978776,2.85812903343233,-990.331302939159,6.20582598101951,0.512291634545912,0.604962974754575,-0.0827737777146396,0.0582466729747217,0.0771771900082864,1.24385319721046,-11.9123136377367,10.0344095305812,1,5.76715030542563,1.52726662205679,1.88364886487019,-0.099317783968614,0.0565576140571907,0.0801494479412599,0,1,0,-1,0,0,0,0
5.4,31.3492934519117,2.93460243026305,-990.237538167999,6.20457684548169,0.487771464723944,0.608199986042107,-0.0811435184927148,0.0579285727825337,0.0867138543502353,0.959078048474102,-11.7502982824141,10.2776738348499,1,5.76839917657514,1.53128386117336,1.86690726403466,-0.0993796577960273,0.0564690158108456,0.0895478593319764,0,1,0,-1,0,0,0,0
5.45,31.6377315004508,3.01121923701407,-990.144613851048,6.20247512841018,0.458398108767825,0.611240086147276,-0.0790651312576619,0.0570255497070998,0.0955126947598754,0.675073130752646,-11.5892324047014,10.5467489244147,1,5.76901805807708,1.53301147857484,1.85006687439141,-0.0987887912279462,0.0558962632715029,0.0981795227865581,0,1,0,-1,0,0,0,0
5.5,31.9261848259951,3.08786637638571,-990.052529570335,6.19951307937396,0.424479063462962,0.614062748017485,-0.0765700962442295,0.0555638715517135,0.103624015933018,0.393632501673064,-11.4304878055134,10.8395295962929,1,5.7690120086857,1.53250823089539,1.83334037238807,-0.0975984380011291,0.0548506498929437,0.106107859573494,0,1,0,-1,0,0,0,0
5.55,32.2146225265186,3.16443408975232,-989.961274538909,6.19568932934573,0.386317113311668,0.616650592239766,-0.0736916680717355,0.0535732212128183,0.111096606766251,0.116395805996147,-11.275398205992,11.1540889629013,1,5.76839648727873,1.52984790011766,1.81692941491179,-0.09586301008967,0.0533474191697907,0.113393859361481,0,1,0,-1,0,0,0,0
5.6,32.5030147188393,3.24081665610717,-989.870828212446,6.19100928528852,0.344209350972952,0.618988998932525,-0.0704643266896693,0.0510861881533578,0.117977565054086,-0.155153922830373,-11.1252483439137,11.4886708688934,1,5.76719665941832,1.52511798175678,1.80102228246672,-0.0936373099867278,0.0514054774259784,0.120095664041731,0,1,0,-1,0,0,0,0
5.65,32.7913330033716,3.31691304286831,-989.781161008346,6.1854852695182,0.298446278129509,0.621065732856893,-0.0669232657796901,0.0481378302247392,0.124312148665344,-0.419690383481638,-10.9812638826361,11.8416812418102,1,5.76544655151411,1.51841827685053,1.7857919372215,-0.0909758484426178,0.0490471145445377,0.126268239443465,0,1,0,-1,0,0,0,0
5.7,33.0795508834694,3.39262748459106,-989.69223511155,6.17913643502045,0.249310995126996,0.622870604604846,-0.0631039236062384,0.0447653007364391,0.130143654575477,-0.676042297383906,-10.844602105137,12.2116786259118,1,5.76318808583512,1.50985942179035,1.77139449550014,-0.0879322489994665,0.0462977353436751,0.131963132806719,0,1,0,-1,0,0,0,0
5.75,33.3676441342348,3.46786998729738,-989.604005346584,6.17198848784718,0.197078484693973,0.624395184150413,-0.0590415597035384,0.0410075322346442,0.135513326184505,-0.923190116446463,-10.7163433625231,12.5973641390131,1,5.76047002959113,1.4995613883533,1.7579681026628,-0.0845587379734729,0.043185601238014,0.137228311605639,0,1,0,-1,0,0,0,0
5.8,33.6555911173002,3.54255675768694,-989.516420096253,6.16407324700325,0.142014992290525,0.625632576801472,-0.0547708793389907,0.0369049662495607,0.140460288520359,-1.16026138823534,-10.5974832508495,12.9975710770792,1,5.75734688986178,1.48765198361818,1.74563218893541,-0.0809057164857985,0.0397415795684734,0.142108077712692,0,1,0,-1,0,0,0,0
5.85,33.9433730396192,3.6166105578965,-989.429422248582,6.15542807098985,0.0843775032237923,0.626577265947236,-0.0503257064188469,0.0324993171926349,0.145021510223059,-1.38652500695271,-10.4889254998576,13.4112543724966,1,5.75387778362817,1.47426537604522,1.73448707762452,-0.0770214096718711,0.0359988965220363,0.146643049841217,0,1,0,-1,0,0,0,0
5.9,34.2309741556855,3.68996098769273,-989.342950155244,6.14609517852943,0.0244133146479121,0.627225022142203,-0.0457387044088889,0.0278333584632775,0.149231790629024,-1.6013845631363,-10.3914755701508,13.8374800907232,1,5.75012530889421,1.4595406701318,1.72461391219068,-0.0729515872305525,0.0319928888179488,0.150870206582473,0,1,0,-1,0,0,0,0
5.95,34.5183819138075,3.76254469700258,-989.256938586409,6.13612088908255,-0.037640301056652,0.627572874092556,-0.0410411439302916,0.0229507194661407,0.153123769824811,-1.80437098739278,-10.3058349694741,14.2754151275161,1,5.74615443918396,1.44362054797244,1.71607486564949,-0.0687393489277793,0.0277607491984332,0.154822982058219,0,1,0,-1,0,0,0,0
6,34.8055870480849,3.8343055324991,-989.171319668863,6.12555480669038,-0.101556346266977,0.627619134033397,-0.0362627149529989,0.0178956834464716,0.156727959210114,-1.99513466481926,-10.2325963125873,14.7243172459528,1,5.74203145983497,1.42664999195705,1.70891359446697,-0.0644249684635841,0.0233412611029115,0.158531406153808,0,1,0,-1,0,0,0,0
6.05,35.0925836185563,3.90519462257314,-989.086023796099,6.11444896853074,-0.167118267089269,0.627363467767046,-0.0314313809357415,0.0127129776370709,0.160072789892652,-2.17343717791632,-10.1722391615383,15.1835255695717,1,5.73782296069404,1.40877509891014,1.70315589922742,-0.060045789171519,0.0187745185984836,0.162022281413689,0,1,0,-1,0,0,0,0
6.1,35.3793690026278,3.97517040544374,-989.000980500974,6.10285697743366,-0.234120047508738,0.62680699819839,-0.0265732718403628,0.00744754901434606,0.163184676122296,-2.33914281741539,-10.125126693103,15.6524516255984,1,5.73359489622462,1.39014199233354,1.69881055559016,-0.0556361652772748,0.0141016285710887,0.165319388923466,0,1,0,-1,0,0,0,0
6.15,35.6659438413614,4.04419860541048,-988.916119283283,6.0908331355189,-0.302366235203916,0.62595243045613,-0.0217126126635477,0.00214432085124082,0.166088090947066,-2.4922099830119,-10.0915032472278,16.1305710106934,1,5.72941172076674,1.37089583615952,1.69587028114224,-0.0512274428385563,0.00936439325482023,0.1684437158388,0,1,0,-1,0,0,0,0
6.2,35.9523119445103,4.1122521623486,-988.831370386257,6.07843159412811,-0.371671905584051,0.624804186523635,-0.0168716839653924,-0.00315207286853635,0.168805651326998,-2.63268257983041,-10.0714928141963,16.617415731205,1,5.72533560381957,1.35117995060413,1.69431280645403,-0.0468479749692029,0.00460497231574624,0.171413697631248,0,1,0,-1,0,0,0,0
6.25,36.2384801583748,4.17931111951689,-988.74666551751,6.06570553335009,-0.441862570504015,0.623368537617167,-0.0120708108149737,-0.00839757631779027,0.171358210060982,-2.76068150173045,-10.0650985188373,17.1125672507145,1,5.72142572777309,1.33113502835901,1.69410202174165,-0.0425231664734499,-0.000134475143747037,0.174245468592164,0,1,0,-1,0,0,0,0
6.3,36.5244582006188,4.24536247461084,-988.661938511289,6.05270638268597,-0.512774037873682,0.621653723248654,-0.00732837660161675,-0.0135490234530397,0.173764952053903,-2.87639627935837,-10.072203157426,17.6156502599027,1,5.71773766850042,1.31089844747329,1.69518917386149,-0.0382755435454374,-0.00481216717085167,0.176953114659773,0,1,0,-1,0,0,0,0
6.35,36.810258466164,4.31039999877347,-988.577125930087,6.03948309277196,-0.584252228047206,0.619670046914316,-0.00266085826077381,-0.0185644703684014,0.176043492664908,-2.98007695913843,-10.0925708371125,18.1263271675631,1,5.71432285761532,1.29060367583752,1.69751409176744,-0.0341248446966011,-0.00938709157605728,0.1795489232045,0,1,0,-1,0,0,0,0
6.4,37.095895808191,4.37442402799466,-988.492167604661,6.026081466563,-0.656152952486104,0.617429939592584,0.00191712038009912,-0.0234035449941299,0.178209976121029,-3.0720262690816,-10.1258497589093,18.64429329709,1,5.71122812396615,1.27037976115456,1.70100642194045,-0.0300881295388293,-0.0138194110035834,0.182043625016745,0,1,0,-1,0,0,0,0
6.45,37.3813872981281,4.43744123100589,-988.407007112346,6.01254355697039,-0.728341659767326,0.614947983661971,0.00639272023187661,-0.0280278095735685,0.180279172243417,-3.15259211823072,-10.1715761736832,19.1692727600486,1,5.70849531103488,1.25035089962531,1.70558685857029,-0.0261799024605906,-0.018070875953039,0.1844466243812,0,1,0,-1,0,0,0,0
6.5,37.6667519683258,4.49946435742938,-988.321592194261,5.99890713662929,-0.80069315357703,0.612240891419546,0.0107548064192345,-0.0324011303309455,0.182264570006746,-3.22216046858432,-10.2291795264501,19.7010149675907,1,5.70616096629284,1.23063607624113,1.71116835636445,-0.0224122485793846,-0.0221052403957806,0.186766213782882,0,1,0,-1,0,0,0,0
6.55,37.9520105409087,4.56051196958225,-988.2358751125,5.98520524423588,-0.873091286910853,0.609327434059185,0.014993858225603,-0.0364900478829507,0.184178466727857,-3.28114861126373,-10.297988787816,20.2392917315412,1,5.7042560981868,1.21134876950799,1.71765731672989,-0.0187949796353277,-0.0258886738728645,0.189009770461268,0,1,0,-1,0,0,0,0
6.6,38.2371851460734,4.62060816098086,-988.149812948823,5.97146581073078,-0.945428636305918,0.606228318725335,0.0191018718800672,-0.0402641412516513,0.186032051950347,-3.32999887232721,-10.3772399529429,20.7838948999665,1,5.70280599624997,1.19259671357986,1.72495474067937,-0.015335787710762,-0.0293901633144301,0.191183932698422,0,1,0,-1,0,0,0,0
6.65,38.5222990328763,4.67978226424643,-988.063367846633,5.95771136750736,-1.01760615956799,0.602966013062986,0.0230722583078558,-0.043696377812113,0.187835485351872,-3.36917276782529,-10.4660846682746,21.3346344669238,1,5.70183010981281,1.17448171110103,1.73295734412231,-0.012040404826689,-0.0325818973024566,0.193294754382638,0,1,0,-1,0,0,0,0
6.7,38.8073762753288,4.73806855078925,-987.976507198174,5.94395883778773,-1.08953284013519,0.599564518505523,0.0268997377230138,-0.0467634411670986,0.189597968245533,-3.39914562229062,-10.5635999248451,21.891337092823,1,5.70134198089845,1.15709949050631,1.74155863318285,-0.00891276658857089,-0.0354396251338775,0.19534783701915,0,1,0,-1,0,0,0,0
6.75,39.0924414764039,4.79550592434903,-987.889203778991,5.93021941133194,-1.16112532094031,0.596049095342483,0.0305802327117023,-0.0494460287994038,0.191327808472278,-3.42040165975495,-10.6687987347861,22.453844970318,1,5.70134922709995,1.14053960206552,1.75064993882059,-0.00595517814330247,-0.0379429828555427,0.197348438953046,0,1,0,-1,0,0,0,0
6.8,39.3775194723545,4.85213761019809,-987.801435831655,5.91649850172829,-1.23230753039724,0.592445944346462,0.0341107612409422,-0.051729111427806,0.193032478684799,-3.43342957150822,-10.7806416852003,23.0220149707681,1,5.70185357052986,1.12488534755207,1.76012141129468,-0.00316848077823377,-0.0400757784635544,0.19930156211724,0,0.94791755494002,0,-0.94791755494002,0,0,0,0
6.85,39.6626349824954,4.90801081586626,-987.713187200494,5.90281654667767,-1.30290076798823,0.588779986992232,0.0375294754651374,-0.053600825315514,0.193989417045251,-3.4384585681367,-10.8981120578174,23.5946462853224,1,5.70284852566751,1.11021284846751,1.76985920130055,-0.000372091818150171,-0.0418695445432458,0.200470477732586,0,0.553374723535384,0,-0.553374723535384,0,0,0,0
6.9,39.9478119264373,4.9631762871826,-987.624447931119,5.88936543205841,-1.37191234828309,0.585070900801877,0.041095938422989,-0.0550433333446639,0.1894463288346,-3.4337427912997,-11.0206350734893,24.162501489528,1,5.70430797400024,1.09658858609554,1.7797305001779,0.00362466659626215,-0.043597769907933,0.196017883689133,0,0.0692860635857058,0,-0.0692860635857058,0,0,0,0
6.95,40.2330729336857,5.0176883475793,-987.53521395601,5.87659659707537,-1.43751192408507,0.581377767070804,0.0448517311931594,-0.0560303820372372,0.178445190331261,-3.41545419111867,-11.1480819982868,24.7080492111195,1,5.70620655890825,1.08409050937647,1.78963199547871,0.00909129023915996,-0.0452998771832709,0.184956264906069,0.604988326733242,0,0,0.604988326733242,0,0,0,0
7,40.5184390324268,5.07160540755081,-987.445486406793,5.86515269097611,-1.49738671766822,0.577767605238841,0.048907276701434,-0.0565302636128733,0.158664692161869,-3.37848434276717,-11.2805358691434,25.2089176335931,1,5.708505334066,1.072804765205,1.79945971421155,0.01664949000242,-0.047081665507109,0.164906145485113,1,0,0,1,0,0,0,0
7.05,40.8039295392181,5.12499079497879,-987.355270443383,5.85570341253891,-1.54953885593353,0.574341405444862,0.052992457918924,-0.0565162389369929,0.134495678932698,-3.31840419788994,-11.4177824551898,25.6457883238047,1,5.71117567683568,1.06284156702842,1.8091548754579,0.0252147820519598,-0.0486362340060226,0.140318526693492,1,0,0,1,0,0,0,0
7.1,41.0895623386518,5.17791357143745,-987.26457394568,5.84856399091315,-1.59347227200892,0.571177871208439,0.0567592508429385,-0.055984575736677,0.111732523478874,-3.23447443616054,-11.5586271041014,26.0141790803822,1,5.71418968632544,1.05431770411768,1.81866687590152,0.0332983014680982,-0.0495911918164228,0.117087827561914,1,0,0,1,0,0,0,0
7.15,41.3753534902654,5.23044820351054,-987.173408183761,5.84377165542099,-1.62952696084421,0.568302912691896,0.0601890643733368,-0.0549479091660024,0.090313242650781,-3.12808802351448,-11.701337111981,26.317890911833,1,5.71750194434842,1.04733100758228,1.82791212981444,0.0408907480070048,-0.0499377972367292,0.0951545897029274,1,0,0,1,0,0,0,0
7.2,41.6613167129915,5.28267372339215,-987.08178846336,5.84132227216316,-1.65802545393916,0.565736297420449,0.0632646011623563,-0.0534238196014023,0.0701780152286881,-3.000667504979,-11.8441687078212,26.5605609390174,1,5.72106428565398,1.041966241613,1.83681290341501,0.0479808667039959,-0.0496769215374629,0.0744637786295832,1,0,0,1,0,0,0,0
7.25,41.9474632545946,5.33467307165504,-986.98973381896,5.84117517014131,-1.67927458752545,0.563492445843768,0.0659700609847852,-0.051434455292353,0.0512690016059304,-2.85366975890472,-11.9853934022471,26.7456743812461,1,5.72482607893397,1.03829495932551,1.84529785902002,0.0545560474005665,-0.0488182286501476,0.0549642972706155,1,0,0,1,0,0,0,0
7.3,42.2338017765149,5.3865324345522,-986.897266683835,5.84325764261819,-1.6935673384214,0.561581166803367,0.0682913508248782,-0.049006174558975,0.0335301699356565,-2.68858896688402,-12.1233220730678,26.8765750990168,1,5.72873456102397,1.03637542882054,1.85330243472522,0.0606029669058097,-0.0473794135618275,0.0366084670348683,1,0,0,1,0,0,0,0
7.35,42.5203382566096,5.4383405794374,-986.804412544946,5.84746915995158,-1.70118466092558,0.560008310248639,0.0702162934163817,-0.0461692038118277,0.0169071319882362,-2.50695771023467,-12.25632693755,26.9564746193509,1,5.73273521741071,1.03625263228524,1.86076907321726,0.0661082511792647,-0.0453854861688309,0.0193514895790098,1,0,0,1,0,0,0,0
7.4,42.807075911912,5.49018819200561,-986.711199589778,5.85368532321772,-1.70239727016134,0.558776324670131,0.0717348267383242,-0.0429573042866839,0.00134699171937105,-2.31034616522431,-12.3828615201594,26.9884596070483,1,5.73677220102995,1.03795833992006,1.86764731890141,0.0710591372617737,-0.0428680854424198,0.00315090225822932,1,0,0,1,0,0,0,0
7.45,43.0940151431109,5.54216721911847,-986.617658351152,5.86176158162926,-1.69746732808707,0.557884715309789,0.0728391877454132,-0.039407438768334,-0.0132017907751571,-2.10035942452819,-12.501478680724,26.9754977824135,1,5.74078878086123,1.04151125947791,1.87389380576451,0.075444116546017,-0.0398648087645218,-0.0120339597047412,1,0,0,1,0,0,0,0
7.5,43.3811535020275,5.59437022099519,-986.523821354877,5.87153673116165,-1.68664999808109,0.557330406108914,0.0735240743998237,-0.0355594294385293,-0.0267895176369543,-1.87863302284218,-12.610846726486,26.9204423234872,1,5.74472781187429,1.04691726125319,1.8794721595568,0.079253542557787,-0.0364185428399901,-0.0262424812088977,1,0,0,1,0,0,0,0
7.55,43.6684856829553,5.64688973651855,-986.42972277396,5.88283620697952,-1.67019484270422,0.557108013563879,0.073786780880982,-0.0314555989999555,-0.0394653521312819,-1.64682679065256,-12.7097635962111,26.8260348283703,1,5.74853221832715,1.05416967746256,1.88435283731451,0.082480187908141,-0.0325767852882855,-0.0395132523757901,1,0,0,1,0,0,0,0
7.6,43.9560035383459,5.69981766533174,-986.335398091956,5.89547517821123,-1.64834704702175,0.557210044285248,0.073627301693132,-0.0271403890677693,-0.051277396729686,-1.40661720189012,-12.7971690781015,26.6949069501018,1,5.75214548313038,1.0632496741247,1.88851292533539,0.085119736654437,-0.0283909494637419,-0.0518845081311425,1,0,0,1,0,0,0,0
7.65,44.2436961189775,5.75324467028737,-986.240883777067,5.90926145033781,-1.621348456795,0.557627030273617,0.0730484012749321,-0.0226599521661314,-0.0622727496287196,-1.15968841809729,-12.8721550073431,26.5295808515908,1,5.75551213685438,1.07412669277308,1.89193591384223,0.0871712001183195,-0.0239156488708363,-0.0633945105253618,1,0,0,1,0,0,0,0
7.7,44.5315497384495,5.80725960365905,-986.146216967791,5.92399817790763,-1.58943842697613,0.558347616944943,0.0720556466422554,-0.0180617162369923,-0.0724975395232529,-0.907722263002581,-12.933973384242,26.3324686598131,1,5.75857824086404,1.08675895862873,1.89461146308068,0.088637246344193,-0.0192079613884559,-0.0740818634911821,1,0,0,1,0,0,0,0
7.75,44.8195480615878,5.86194896034051,-986.051435170223,5.93948638841461,-1.55285448129331,0.559358618976964,0.0706574015577985,-0.0133939231251497,-0.0819969390413171,-0.652387386029727,-12.982042359754,26.1058711252528,1,5.76129185993068,1.10109405121598,1.89653517181523,0.0895244358767916,-0.0143266771063211,-0.0839857517434544,1,0,0,1,0,0,0,0
7.8,45.1076722161354,5.9173963610418,-985.956575966734,5.95552731693291,-1.51183278831879,0.560645058314404,0.0688647817039684,-0.00870514486062463,-0.0908151578267692,-0.395327890264405,-13.0159500506871,25.8519757128301,1,5.76360352043207,1.11706953282074,1.8977083553826,0.0898433593641626,-0.00933153667944863,-0.0931460980502692,1,0,0,1,0,0,0,0
7.85,45.3959009269234,5.97368206824876,-985.86167673541,5.97192455042517,-1.46660846328949,0.562190197352536,0.0666915713167589,-0.00404378358047463,-0.0989954168064864,-0.138151708913426,-13.0354561703204,25.572854362966,1,5.76546665086583,1.13461362966471,1.89813783685368,0.0896086755689848,-0.00428246955970322,-0.101603636037857,1,0,0,1,0,0,0,0
7.9,45.6842106715666,6.03088253744325,-985.766774379612,5.98848598047048,-1.41741570811447,0.563975578581237,0.06415410269096,0.000542437471888887,-0.106579905680391,0.117580986216378,-13.0404914896266,25.2704611650413,1,5.76683800184844,1.15364596019339,1.89783575161375,0.088839051566646,0.000761156831097533,-0.109399898878041,1,0,0,1,0,0,0,0
7.95,45.9725758565918,6.08907000579088,-985.671905066998,6.00502556342308,-1.36448780447624,0.565981079956431,0.0612711008615263,0.0050069833086283,-0.113609726106617,0.370369070334908,-13.0311551774833,24.9466301798397,1,5.76767804304993,1.17407830444744,1.8968193629187,0.0875570100619911,0.00574126500108714,-0.116577127458845,1,0,0,1,0,0,0,0
8,46.2609690127868,6.1483121201914,-985.577103977599,6.02136488764116,-1.30805697673766,0.568184993093445,0.0580634965728756,0.00930500772173368,-0.120124823404077,0.618781189905902,-13.0077101029957,24.6030736327279,1,5.76795133463628,1.19581540810145,1.89511088380107,0.0857886916945653,0.0106017602210137,-0.123178104756138,1,0,0,1,0,0,0,0
8.05,46.5493610084327,6.20867160625765,-985.482405060764,6.03733454834173,-1.2483541425371,0.570564129150546,0.0545542113404891,0.0133938356032185,-0.126163909847383,0.861465696344554,-12.9705762172023,24.2413806759889,1,5.76762687078463,1.21875581441046,1.89273729912717,0.0835635427574472,0.0152891766962148,-0.129245925913955,1,0,0,1,0,0,0,0
8.1,46.8377212789624,6.27020597944288,-985.387840801143,6.05277533176601,-1.18560856953228,0.573093955079922,0.0507679189654089,0.017233417960733,-0.13176438277579,1.09715959292874,-12.9203221631341,23.8630168880582,1,5.76667839273379,1.24279271700318,1.88973018065378,0.0809139407844138,0.0197532666324485,-0.134823715835729,1,0,0,1,0,0,0,0
8.15,47.1260180714534,6.33296729917698,-985.293441994256,6.06753921160671,-1.12004745679072,0.575748760845327,0.0467307882664087,0.0207867511746506,-0.136962240774383,1.32469633652112,-12.8576552908934,23.469324641054,1,5.7650846686767,1.26781482620675,1.88612548758095,0.0778747718595588,0.0239475233741911,-0.139954307760176,1,0,0,1,0,0,0,0
8.2,47.414218702228,6.3970019665009,-985.19923753254,6.08149016198147,-1.05189545888145,0.578501856307617,0.04247021203847,0.024020253006685,-0.141792001113422,1.54301237657558,-12.7834102769401,23.0615244278253,1,5.76282973763377,1.29370724138796,1.88196334530415,0.0744829742155462,0.0278296317556191,-0.144679897265676,1,0,0,1,0,0,0,0
8.25,47.7022898256836,6.46235056530927,-985.105254203155,6.09450479257102,-0.981374169868066,0.581325794818826,0.0380145273291626,0.0269040890818272,-0.146286621456586,1.75115235581985,-12.6985365633677,22.6407171978452,1,5.75990311430763,1.32035232166059,1.87728779577129,0.0707770627056503,0.0313618409622673,-0.149041686390951,1,0,0,1,0,0,0,0
8.3,47.990197712327,6.52904774692692,-985.011516499088,6.10647281281819,-0.908701583209547,0.584192619188316,0.0333927320534837,0.0294124449523674,-0.150477428581709,1.94827293803287,-12.6040848432405,22.2078877096887,1,5.75629995185055,1.3476305472512,1.87214651397001,0.0667966481041096,0.034511257420392,-0.153079532104786,1,0,0,1,0,0,0,0
8.35,48.277908533832,6.59712215735986,-984.918046445373,6.11729733325542,-0.834091542120631,0.587074124624912,0.0286342027561479,0.031523740342748,-0.154394056512882,2.13364526672293,-12.5011928220571,21.763908868472,1,5.75202115950558,1.375421363849,1.86659048651892,0.0625819639949924,0.0372500573904037,-0.156831612276483,1,0,0,1,0,0,0,0
8.4,48.565388652789,6.6665964061809,-984.82486344238,6.12689501305622,-0.757753193304386,0.589942132537056,0.0237684179971046,0.0332207836976476,-0.158064396058107,2.30665609280894,-12.3910704834209,21.3095469811365,1,5.7470734722373,1.40360400240421,1.86067365001488,0.0581734123694974,0.0395556209387721,-0.160334120699908,1,0,0,1,0,0,0,0
8.45,48.8526049146826,6.73748707563885,-984.731984128208,6.13519606376125,-0.679890455220667,0.592768768694239,0.0188246914039307,0.0344908666487765,-0.161514557301092,2.46680763852827,-12.2749850796205,20.8454678321289,1,5.74146946976209,1.4320582670945,1.85445248859794,0.0536111371023855,0.04141059072057,-0.163621000739075,1,0,0,1,0,0,0,0
8.5,49.139524939509,6.80980476822554,-984.639422262195,6.14214411979579,-0.600701510265522,0.595526739207505,0.0138319179286606,0.0353257994212144,-0.16476884612906,2.61371628805934,-12.1542460558191,20.372243457773,1,5.73522754282649,1.46066528456076,1.84798559203581,0.0489346323632712,0.0428028604671915,-0.166723724934257,1,0,0,1,0,0,0,0
