Time,Inertial_X_Position,Inertial_Y_Position,Inertial_Z_Position,Body_U_Vel,Body_V_Vel,Body_W_Vel,Body_P_Vel,Body_Q_Vel,Body_R_Vel,Roll_Angle,Pitch_Angle,Yaw_Angle,Phase,Inertial_Vx,Inertial_Vy,Inertial_Vz,Eul_Phi_Dot,Eul_Theta_Dot,Eul_Psi_Dot
0,0,0,-9400,20.3857847520819,0,0,0,0,0,6.97723316413893,-12.5728815094298,0,1,19.8969316223567,0,4.43760430564475,0,0,0
0.05,0.993357681688699,0.00106747714713041,-9399.77518164753,20.35355902469,0.0563931239171935,0.136784974936497,-0.00345935349878821,0.0320778577966304,0.00283181382851471,6.9701024881417,-12.5271708875972,0.00993589038150914,1,19.8380658549907,0.0428175066239226,4.55396147101775,-0.00494883670724987,0.0314971452995425,0.00686706113180911
0.1,1.98387497497663,0.00429491341389606,-9399.5447364297,20.3230549720386,0.110771523169042,0.296192984920258,-0.00672131483853233,0.0614489524175189,0.00331935958468188,6.94996131621912,-12.3945799291165,0.0356146925693504,1,19.7833416697373,0.0864147304130631,4.66245524203384,-0.00907949193471625,0.0605957875030321,0.0109865116104827
0.15,2.97176420314698,0.00972315230323818,-9399.30908561093,20.2936325564199,0.164218515393691,0.47411077703376,-0.00991041130299203,0.0877990537352904,0.00375737733405787,6.91828291073663,-12.1828406783286,0.0724336540225768,1,19.7329543665918,0.130861086804452,4.7620015147677,-0.0129989359903805,0.086707195272943,0.0146353337470399
0.2,3.9572456537167,0.0173956272106563,-9399.06869807321,20.2647315631554,0.215291660101146,0.666443207762837,-0.0131639302857588,0.110883309966405,0.00681020761159684,6.87468859763263,-11.901332546526,0.122865525770431,1,19.687027287616,0.176189080296282,4.85177867997658,-0.0173861972798967,0.109270924185274,0.0204738863698305
0.25,4.94053847716017,0.0273571981881931,-9398.824086095,20.2356247373972,0.26258449269313,0.868877514100916,-0.0163163064819379,0.130526407859409,0.00975649186575436,6.81895970025003,-11.5600068784919,0.189161030598031,1,19.6453911981412,0.222423020115311,4.93087618331582,-0.0214677698525162,0.12844468656296,0.0257066596587085
0.3,5.92185378774609,0.0396525868101032,-9398.5757971279,20.2058342994479,0.30607314104048,1.07737215165555,-0.0193609106739551,0.146620331445165,0.0125953384759173,6.75198887204025,-11.1687421334364,0.269562128204193,1,19.6078953156812,0.269534498300184,4.99879422471926,-0.0252339954803623,0.14412257052054,0.0303206519736636
0.35,6.90139323732304,0.0543243050402711,-9398.32439783645,20.1750232426914,0.345742001063521,1.2880631520994,-0.022293223049889,0.159120975373494,0.0153267778523096,6.67467879865043,-10.7376301622587,0.362296657077982,1,19.5743133835991,0.317463876658548,5.05526253580412,-0.028687208289616,0.156261012450739,0.0343187114889542
0.4,7.87934296394372,0.0714115604683586,-9398.07046691829,20.1428502323519,0.382930471408356,1.49717269372126,-0.0249734152019032,0.168044294076111,0.0153023621744645,6.58880901920681,-10.2763643826247,0.461779173127441,1,19.5442523449479,0.366139417024218,5.10007053951362,-0.0312253847113154,0.165178553640323,0.0350453934161766
0.45,8.855872992353,0.0909486090882844,-9397.81457993002,20.1093688208616,0.418956165617373,1.70148710165901,-0.0275625010051146,0.173462013053461,0.0152194972070784,6.49596426305946,-9.79454417985572,0.562602473275074,1,19.517463993408,0.415435773447965,5.13354744630105,-0.0335607878912349,0.170626526034117,0.0352600500126206
0.5,9.83113743559031,0.112963313149663,-9397.55729550649,20.074660580774,0.453785403238932,1.89795103513484,-0.0300618256474145,0.175497521295236,0.0150796116208615,6.39668924157778,-9.30194886552792,0.66334907039726,1,19.4935617683744,0.465222002653684,5.15604061543923,-0.0357188749940349,0.172724894379607,0.0349983961957084
0.55,10.8052703455535,0.137476450685075,-9397.29915046914,20.0389246627868,0.48739416579976,2.08384906685277,-0.032472866282636,0.174320550661192,0.0148847776812701,6.29145490965459,-8.80794709334603,0.762713709728156,1,19.4721321068426,0.51534631928796,5.16807227426121,-0.037725404957282,0.171639507756448,0.034302762703537
0.6,11.7783847072956,0.164500771533412,-9397.04065154203,20.0024534392899,0.519767850617889,2.25682862356667,-0.0347971161862565,0.170141510688291,0.0146375831433599,6.1806598249077,-8.32137318713047,0.85951974892468,1,19.4527481718107,0.565640063015397,5.17032083423027,-0.0396049382616925,0.167576602315128,0.0332203252422203
0.65,12.7505721077765,0.194040257093019,-9396.78226804653,19.9656051304637,0.550900848550652,2.41491491791252,-0.0370359855226959,0.163205480321824,0.0143410028419189,6.0646353378805,-7.8504197564388,0.952730691807896,1,19.4349830080755,0.615921862377389,5.1636004654264,-0.0413796679743937,0.160776943919031,0.0318014944756885
0.7,13.7219055098462,0.226089235634829,-9396.52442163751,19.9289326282372,0.579474713827055,2.55666451343013,-0.0393271321447006,0.15378708992974,0.016621788871288,5.94295617608989,-7.40293902002893,1.04523696657124,1,19.4185212051375,0.665987589893337,5.14899745724804,-0.0435440329155217,0.151239565645492,0.0327281061140674
0.75,14.6924353144257,0.260632702759235,-9396.2674896884,19.8926103209852,0.605532101626866,2.68056648648474,-0.0413776438799951,0.142182276139303,0.0161944849106095,5.81594404111758,-6.98555921894816,1.13620708414374,1,19.4027752045862,0.715668212225876,5.12720046101536,-0.0451170861490755,0.139809361723547,0.0307471428365494
0.8,15.6621929648948,0.297645807541187,-9396.0117965701,19.8572684608018,0.629113696683804,2.7860950408245,-0.0434843193772933,0.128702683218455,0.0183419349655392,5.683865099603,-6.60404903004178,1.22499643179783,1,19.3875784234649,0.764741026317131,5.09962688643771,-0.047073177780978,0.126253339794418,0.0312054697338007
0.85,16.631195301698,0.337093680891074,-9395.75760733088,19.8231934431145,0.648968172625967,2.87262270785858,-0.045492963384573,0.113670896400476,0.0204066598991985,5.54633108654567,-6.26364331006897,1.31483097088323,1,19.3725120965295,0.813027120247297,5.06723604793425,-0.0489281378363802,0.111166414728084,0.0314854429339519
0.9,17.5994391634017,0.3789325933253,-9395.50513801601,19.7905377692289,0.666483745159031,2.93987284398873,-0.0472689773333295,0.0974103382533642,0.0197890666420868,5.40420715637848,-5.96791360116752,1.40152954583492,1,19.3571955745841,0.860352306246075,5.03102489688729,-0.0502875505379326,0.0951135920165316,0.0290326980334952
0.95,18.5669107964036,0.42310949096096,-9395.25454246622,19.7597743020316,0.68171718345804,2.98834147358327,-0.0491071125210879,0.0802434789097579,0.0217397995025524,5.25765637195561,-5.71989546930803,1.48487971075845,1,19.3415882502701,0.906518931293496,4.99247342831271,-0.0520120101940778,0.0779137501280575,0.0291465394416746
1,19.5335883638531,0.469562677206016,-9395.00591363,19.7310107823078,0.693443736528138,3.01834815462149,-0.0508561197129542,0.0624872010549846,0.0236164542897872,5.10626566914694,-5.52205064776255,1.56848840908544,1,19.3254051756712,0.951377888684312,4.95254189268971,-0.053667915853366,0.0601372700164928,0.0292198932476891
1.05,20.4994368183141,0.518223270853605,-9394.75929692601,19.7041958618432,0.703039109813483,3.03048219702763,-0.0523797508591412,0.0444431277002375,0.0228517055760218,4.9507708073635,-5.37527606373548,1.64860047356709,1,19.3084026925769,0.994791871793091,4.91216810496249,-0.0548827879237177,0.0423052230653421,0.0267193814196939
1.1,21.4644148260355,0.56901543387764,-9394.51468405894,19.6794317787999,0.711850912261332,3.02586388322233,-0.0538274121451486,0.0263963078419849,0.0220502913836802,4.79184581674314,-5.27966823177102,1.72163168426796,1,19.2905739492706,1.0366207961749,4.87255509257467,-0.0560617084183658,0.0244620526811694,0.0242812783076641
1.15,22.4284793968102,0.621857079977904,-9394.27201255329,19.6566958324859,0.719927480901534,3.0056514513664,-0.0551987496985583,0.00861374943380321,0.0212291546374808,4.62959854552546,-5.23487537791957,1.78782100616968,1,19.2718581790304,1.07675426500991,4.83466750209865,-0.0572011371285422,0.00687215885929485,0.0219466779710003
1.2,23.3915878765054,0.676660825881789,-9394.03116984372,19.6360740498239,0.726034859405861,2.97130846964063,-0.056634182804951,-0.00865794976046614,0.0229549526787399,4.46361013508264,-5.24010565125667,1.85118608845571,1,19.252329518476,1.1150908611299,4.79954010426409,-0.0586712664603218,-0.0104181800785295,0.0223047344796627
1.25,24.3536972617392,0.733335078817572,-9393.79200204178,19.6173895425828,0.728974303808326,2.92412032109113,-0.0579872446490387,-0.0251965431369319,0.0246141778402986,4.29348905019262,-5.29385861014509,1.91570678081719,1,19.2318977395071,1.15156291752486,4.7677948610855,-0.0600867839337806,-0.0269685832386255,0.0227558150835038
1.3,25.3147630982652,0.79178501486231,-9393.55432230558,19.6004996962616,0.728837841130984,2.86562412686986,-0.0592590233620262,-0.0408080673744734,0.0262074828859679,4.11938783651164,-5.39373052765752,1.98166746540184,1,19.2105949967262,1.18610941696978,4.74012435501947,-0.0614502943663071,-0.0425852544302872,0.0233115485495873
1.35,26.2747425180169,0.851913224689627,-9393.31791265584,19.5852051982202,0.726020733963798,2.7973859555539,-0.0604153539379226,-0.0553265792001155,0.0271177058052875,3.94158742326644,-5.53673992439839,2.04848916907033,1,19.1884517035996,1.21868782338038,4.71708152936113,-0.0626691653015008,-0.0570597679857481,0.0233594280153424
1.4,27.2335939527087,0.913620618418695,-9393.08253104568,19.5712338634126,0.721859259658243,2.72097087036991,-0.0613819007645989,-0.0686159875789908,0.0260504250222596,3.76079863943261,-5.71929677342593,2.11285325522069,1,19.1654886125354,1.2492734806503,4.69907652819832,-0.0635345707916556,-0.0701769070040266,0.0216012524376293
1.45,28.1912803404013,0.97680709175704,-9392.8479124793,19.5584735194063,0.717351281130253,2.63814078560175,-0.0622645927863403,-0.0805679453863185,0.0249657627417963,3.57762494440436,-5.93755629305142,2.17240229579192,1,19.1418654190398,1.27785059100073,4.68661415319875,-0.0643331611291702,-0.0819688151562124,0.0199968860057787
1.5,29.1477710964084,1.04137226589869,-9392.61377252752,19.5467767086768,0.712527519627747,2.5505225095854,-0.0630611243893644,-0.0910999987766684,0.0238628463841007,3.39226597926292,-6.18759646623362,2.22756654311563,1,19.117680497158,1.30442322784011,4.67996930420014,-0.0650592804742126,-0.0923523790014328,0.018538498730353
1.55,30.1030407690694,1.10721627239643,-9392.37981554188,19.5360150463594,0.707416800068404,2.45970158846289,-0.0637693484548443,-0.100156399111861,0.022740598818821,3.20493684313544,-6.46529555668113,2.2787490447325,1,19.0930403687526,1.32900747289225,4.67931650340811,-0.0657077831682759,-0.101271120377503,0.0172150174068008
1.6,31.057069387512,1.17424031405729,-9392.14573956496,19.5260836041994,0.702046077740347,2.36720160553707,-0.0643873250174741,-0.107706920032424,0.0215977870765235,3.01586672397195,-6.76640686244164,2.32631713443287,1,19.0680574021664,1.35162982510967,4.68473444052854,-0.066273966697622,-0.108694059898207,0.016012675889679
1.65,32.0098451404331,1.24234705237002,-9391.91123716372,19.5170627192366,0.695202363486347,2.27460554340514,-0.0650578603879644,-0.113742758518212,0.0229439656436254,2.82465103947702,-7.08680894915188,2.37422704621237,1,19.0429459141311,1.37232164031453,4.69636222175255,-0.0672100002850762,-0.114735231219478,0.0174441708870829
1.7,32.9613597954721,1.31144108528345,-9391.67600785575,19.5086693580348,0.686936336323926,2.18297022833793,-0.0654970910315297,-0.11827986002699,0.021714016916638,2.63150574889555,-7.42217892128566,2.42268349284486,1,19.0176328286824,1.391128453154,4.71379081943043,-0.067615377639681,-0.119152071244793,0.0163980143581606
1.75,33.9116110334621,1.38142913580601,-9391.43975759441,19.5011030991742,0.677287761285482,2.0938222321297,-0.0659858041205028,-0.121354651862902,0.0229610436510308,2.43664632146647,-7.7682667216341,2.47187193174994,1,18.9924298876922,1.40809043130058,4.73716377533473,-0.0684114563729704,-0.122221109590505,0.0179456182291544
1.8,34.8606050623543,1.45222021983582,-9391.20219902309,19.4942856039679,0.665074117691332,2.00813103939486,-0.0663856552753279,-0.123019197129758,0.0241363093583015,2.23960030770658,-8.12109522512343,2.52551663693855,1,18.9673646081445,1.42325767738043,4.76607831114441,-0.069141196801974,-0.123868437863771,0.0195060862856727
1.85,35.8083494075682,1.52372583748443,-9390.96306611259,19.4880683035078,0.651583743517576,1.9267515007601,-0.0665512479330508,-0.123347119701331,0.0227459926964284,2.04129505374493,-8.47656041825,2.58000883267207,1,18.9424620946096,1.43668028539315,4.80008525700612,-0.0692842054157431,-0.124079052695423,0.0185404924737428
1.9,36.7548598902195,1.59586003342809,-9390.72210491275,19.4827089648555,0.63686502997098,1.85082600683034,-0.0667606028313869,-0.122423523178733,0.023789569591151,1.84199090660325,-8.83094474232515,2.63533644993502,1,18.9180306371618,1.4484098621236,4.83914540657048,-0.069843309574216,-0.123124937995785,0.0200802234355709
1.95,37.700160822505,1.66853948268845,-9390.47907651617,19.4781730426104,0.61973834517435,1.78093496849278,-0.0668797300767382,-0.12034246666267,0.0247888576867631,1.64119105734053,-9.18089874210699,2.6950632470141,1,18.894099863051,1.45849868325126,4.88270437486885,-0.0703274701092326,-0.121003059769105,0.0216088682192433
2,38.644278707279,1.74168337405097,-9390.23376901687,19.474403438788,0.601009728199812,1.71758007136548,-0.0668164374069564,-0.117211930723651,0.0241627803689778,1.43962405195503,-9.52316940666346,2.7568317720693,1,18.8707278635011,1.4669958487007,4.93023694899101,-0.070374654843693,-0.117781987746648,0.0215067648171672
2.05,39.5872449356384,1.81521338471693,-9389.98599389768,19.471437082985,0.581939961502215,1.66125542084307,-0.0666019300145881,-0.113148393641551,0.0225599769192029,1.2383861813874,-9.85481950314053,2.81688394545114,1,18.8480524465205,1.47395207931614,4.98133215212665,-0.070095229911179,-0.113609536878584,0.0204104830089728
2.1,40.5290980241213,1.88905376850388,-9389.73558330907,19.4693522204102,0.563010589471265,1.61233750964895,-0.066288180745822,-0.108271909547503,0.0209276703782728,1.03812721123559,-10.1733361586418,2.8737286539853,1,18.8262207748901,1.47941928593367,5.03557533582556,-0.0696909800388592,-0.108633300041173,0.0192654859714822
2.15,41.4698852229479,1.96313137078227,-9389.48238817648,19.4683459459341,0.543026161937796,1.57115410656503,-0.0660189472103943,-0.10270195579798,0.0217445292654074,0.838351961773547,-10.4766451080308,2.93083071187126,1,18.8054352595832,1.48344840920832,5.09263016765751,-0.0697615877398159,-0.103009116625049,0.0205826511403184
2.2,42.409659258095,2.03737529452236,-9389.22628434237,19.4683663005108,0.520816626508155,1.53763226251732,-0.0656581827188611,-0.0965592099011088,0.0224900119171883,0.638521809296098,-10.7629799555724,2.99155935014518,1,18.7857112488254,1.4860784567885,5.15184171341353,-0.0697285086785103,-0.0968038442786548,0.0217959844708471
2.25,43.3484757151643,2.1117165027607,-9388.96717620606,19.4694307621724,0.496441589113594,1.51172875503611,-0.0652059386371882,-0.0899665159022624,0.0231653781713489,0.438940346072319,-11.0308537362171,3.05560666289541,1,18.7671481604778,1.48734554972241,5.21272149856736,-0.0695872902048738,-0.0901413430044777,0.0228985425807496
2.3,44.2863949331766,2.18608767940164,-9388.70499249875,19.4715415810256,0.469992741792011,1.49329121322742,-0.0646589553917429,-0.0830445650859965,0.0237091749951364,0.239945830390821,-11.2791312030931,3.12255567217093,1,18.7498365250505,1.48728241465282,5.27478574630245,-0.0693181339299682,-0.0831431269216525,0.0238212753565663
2.35,45.2234795071264,2.26042297413422,-9388.43968936855,19.4745521804606,0.442747991252294,1.48194871667965,-0.0638841479452739,-0.0759128561455163,0.0217726177690613,0.042783953834049,-11.5070181662678,3.18844100380958,1,18.7337753190136,1.48591545973214,5.33742428099477,-0.0683050731817947,-0.0759290930477,0.0221613632610476
2.4,46.1597960194577,2.33465809911234,-9388.17124530833,19.4785406435021,0.415935874770208,1.47751026068235,-0.0630182746092974,-0.0686856803899715,0.019811356100751,-0.151290818674739,-11.714095066921,3.2494510859915,1,18.7191260302675,1.48328100674951,5.40035026094451,-0.0671636834823676,-0.0686331286604725,0.0204178986720974
2.45,47.0954167794793,2.40873045954982,-9387.89965665622,19.4834907904564,0.389592581974331,1.4795685442813,-0.0620649436020851,-0.0614684173325034,0.0178269344648627,-0.341917822266701,-11.9002802711882,3.30534916469933,1,18.7059555323013,1.47940976939712,5.46313950002502,-0.0658989942826279,-0.0613609395884873,0.018593035234095
2.5,48.0304171823695,2.48257892531537,-9387.62494029314,19.4893772637617,0.363757482628523,1.48764998017733,-0.0610279912807879,-0.0543590421704819,0.0158211203997034,-0.528752142615963,-12.0657844531689,3.35590742205301,1,18.6943202485529,1.47432966941337,5.52539506002535,-0.0645169504179816,-0.0542107248579983,0.0166908197110136
2.55,48.9648751672827,2.55614369932626,-9387.34713219722,19.4961670773903,0.338473001245994,1.50122551527145,-0.0599114315138327,-0.0474472363717616,0.0137958802872377,-0.711467041018949,-12.2110877550972,3.40091205506907,1,18.6842653997117,1.46806616707414,5.5867504805587,-0.0630242707576539,-0.04727227325966,0.0147169460568255
2.6,49.8988706415077,2.62936620395912,-9387.06628585144,19.5038213704239,0.313784429137812,1.5197215103296,-0.0587194061616214,-0.0408136626820142,0.0117533528442732,-0.889755946794179,-12.3369146017782,3.44016760886912,1,18.6758244031789,1.46064264895448,5.64687241754369,-0.061428288640298,-0.0406262290804447,0.012678482542865
2.65,50.8324870617115,2.70218916037755,-9386.7824666161,19.5124347752772,0.288516534624582,1.54266323761876,-0.0575953516103201,-0.0345270702604506,0.0121829520240568,-1.06431963576924,-12.444141514928,3.47715761932258,1,18.6691064294363,1.45208722158703,5.70561743741902,-0.0604248492884983,-0.0342948173542785,0.0131306687011003
2.7,51.7658065954632,2.77455599751439,-9386.49575816662,19.5217199424199,0.262739167195166,1.5691413608074,-0.0562628044436496,-0.0286485837792895,0.010072055732027,-1.23488611190168,-12.5338732014384,3.51165817067543,1,18.6639487191353,1.44240059904529,5.76240268566964,-0.0586387130048799,-0.0284248655694764,0.0109480417462007
2.75,52.6989114491947,2.84641099693811,-9386.20625606255,19.5318637005899,0.236511138819604,1.59879036818641,-0.0550050403619159,-0.0232291838508408,0.0104441812076309,-1.40121537788622,-12.6073722950231,3.5435159112208,1,18.6605182859015,1.43161650556543,5.8173275016231,-0.0574673509543443,-0.0229668420827012,0.0112810922199867
2.8,53.6318855770087,2.91769945176231,-9385.91406236021,19.5427120426435,0.208676009041709,1.63081775808994,-0.053683948438928,-0.018307335013243,0.0107714435654343,-1.56407344699126,-12.6659396016705,3.57623106110756,1,18.6587160360018,1.41974099684582,5.87003897842776,-0.0562160678432052,-0.0180065093432448,0.0115481497097847
2.85,54.5648075911384,2.98836690897392,-9385.61929551662,19.5540820113213,0.180546497431536,1.66444891428035,-0.0521631999731611,-0.0139155195597711,0.00855696426673429,-1.72222946874237,-12.711154260801,3.60594942289213,1,18.6584274254737,1.40677946384114,5.92023378591674,-0.0541868087848888,-0.0136520621534122,0.00919671211155447
2.9,55.4977564174617,3.05836000571365,-9385.32207603554,19.5661669452385,0.152184626098732,1.69934015586571,-0.0507273590760436,-0.0100740635733322,0.00884419327324089,-1.87549444278361,-12.7445846050704,3.63259863747797,1,18.6597818254635,1.3927697089274,5.9681270779618,-0.0528012163772973,-0.00977921677504337,0.00940076140036811
2.95,56.4308109724782,3.12762652934687,-9385.02252526561,19.578817409394,0.122428794496416,1.73474345607724,-0.0492371927605909,-0.00679158339151784,0.00909516628632612,-2.02469669183922,-12.7677202246714,3.65977475394224,1,18.6626474665382,1.37771930773378,6.01347602201297,-0.0513512620492779,-0.00646600867024414,0.00956596443509807
3,57.3640432418733,3.1961146337933,-9384.72077552346,19.5918675421157,0.0926014075796624,1.76995333809965,-0.047556464731376,-0.00407117167924444,0.00680105491070814,-2.16864104632771,-12.7823039990443,3.6836827673926,1,18.6668790188784,1.36163658786196,6.05608430627362,-0.0491332634034694,-0.0038108978432773,0.00712686034806136
3.05,58.2975218714017,3.26377357174867,-9384.41695983199,19.6054000445761,0.0640086409646438,1.80458571061586,-0.0458320182845294,-0.00190699926009731,0.00451306144353568,-2.30616934019286,-12.7900981961314,3.70062309274678,1,18.6724899229509,1.34455724016594,6.09611544396583,-0.0468731308777022,-0.00172385192235177,0.00470283103594071
3.1,59.2313139756094,3.33055421982087,-9384.11120657596,19.6193938050009,0.0367073911641472,1.83815202744528,-0.0440678365519228,-0.000283264170971193,0.00223363818831305,-2.43717022027948,-12.7927079356966,3.71064902980925,1,18.6794049432649,1.32650994348414,6.13359323069637,-0.0445772840487551,-0.000188025120299912,0.00230077409864838
3.15,60.1654848684934,3.39640921704857,-9383.80363821545,19.633950814497,0.00950358306508902,1.87034668288662,-0.0424071126417099,0.000824742761108632,0.00248988512953879,-2.56257290603802,-12.7915183333348,3.71754599917505,1,18.6876282977784,1.30753599832973,6.16872838075299,-0.042963475796623,0.000935241831391878,0.00251288504656682
3.2,61.1000958343449,3.46129264396538,-9383.49437437228,19.6489328570217,-0.0187821245937898,1.90062880451336,-0.0407086317714612,0.00144818855150987,0.00272258611554252,-2.68329542198267,-12.7878125004438,3.72504135466212,1,18.6969932060891,1.2876518048565,6.20142749061899,-0.0413105136354005,0.0015740591836319,0.00271925076111643
3.25,62.0352017245345,3.52515971431649,-9383.18353441797,19.6643173202726,-0.0480723351011934,1.92866082450697,-0.0389750374564102,0.00162244653216079,0.00293403254663801,-2.79923071823333,-12.7829288967397,3.73312442606311,1,18.7074101492859,1.26688688379856,6.23179126157278,-0.0396219429738741,0.00176379808552383,0.00292376175439781
3.3,62.9708522731897,3.58796710700947,-9382.87123331037,19.6800518214323,-0.0779435368393488,1.95412386796427,-0.0371703482926541,0.00138746862202918,0.00242611322608177,-2.90999819533522,-12.7781481377453,3.74076465829029,1,18.7187639502167,1.24527046746718,6.25989557576384,-0.0377038903651595,0.00150884651713034,0.00241229017611094
3.35,63.9070910319603,3.64967301338423,-9382.55758241993,19.6960709555963,-0.107063217883271,1.97673704751183,-0.0352357302570079,0.000786467374420714,6.94155153000598e-05,-3.0144887959354,-12.7747730438274,3.74425090943921,1,18.7309225524729,1.22283419390551,6.28580781149015,-0.0352420697443498,0.000789029571347688,2.86700092644927e-05
3.4,64.8439573747453,3.71023773703066,-9382.24268452301,19.7124535379074,-0.134462254781821,1.99644502904141,-0.0332795967272522,-0.000133798952515854,-0.00226537481570149,-3.11190908472395,-12.7739386378405,3.74096997744648,1,18.7438520917311,1.19963069858804,6.30980128739521,-0.0327684037821657,-0.000256580607374893,-0.00231199261121963
3.45,65.7814875794911,3.76962406729039,-9381.92663166132,19.7291904798281,-0.16009478115492,2.01313898903135,-0.0313052015997793,-0.00132358366152159,-0.00457644636688194,-3.20222941411162,-12.7765058420622,3.73104540776391,1,18.7574621607245,1.17570635036947,6.33203314774473,-0.030285818066047,-0.00157715892479895,-0.00460949537072827
3.5,66.7197134645679,3.82779716289072,-9381.60950785227,19.7462713570984,-0.183917478297695,2.02676439955497,-0.0293157041565281,-0.00273189553823605,-0.00686208596702252,-3.28542797844553,-12.7831880342825,3.71460023114541,1,18.7716649467842,1.15110952111258,6.35266669001047,-0.0277968751120368,-0.00312067241197598,-0.00686438070142994
3.55,67.6586625420211,3.88472464657792,-9381.29138886019,19.7636839895567,-0.205889683979549,2.03731867860136,-0.027314189305103,-0.00430736454740935,-0.0091206737589699,-3.36148988952108,-12.7945488394975,3.69175500019068,1,18.7863761533675,1.12589035928042,6.37186822857072,-0.0253038551412224,-0.00483474806289165,-0.00907781547403735
3.6,68.5983582139399,3.94037668763642,-9380.97234212106,19.7814141536247,-0.225973470884848,2.04484818389688,-0.0253036876465433,-0.00599906623145776,-0.0113506771825845,-3.43040648280892,-12.8110023488394,3.66262618205399,1,18.8015158020374,1.10010053299237,6.38980409597988,-0.0228088360006721,-0.00666749771885078,-0.0112514633295712
3.65,69.5388221220022,3.99472640611878,-9380.6524226994,19.7995497601998,-0.245418699337685,2.04958280428735,-0.0234296009523635,-0.00775684568832416,-0.0109779782720982,-3.49321934492307,-12.8325916481627,3.63110669101045,1,18.8170944239258,1.07380575840466,6.4068002427515,-0.0210412051151342,-0.00841132636769335,-0.0107535429225243
3.7,70.4800703483406,4.04774907982329,-9380.33168214851,19.8178307991962,-0.264173091606185,2.05136143676421,-0.0214052133361955,-0.00953298847613582,-0.0131892047575443,-3.54990726630666,-12.8594393518055,3.59722135582772,1,18.8328765385372,1.04702731852608,6.42267731017332,-0.0185348329927346,-0.0103313453528471,-0.0128971073477311
3.75,71.4221155587926,4.09942255241859,-9380.01016403345,19.8364723979878,-0.282202438326461,2.05064748609251,-0.0195232348519159,-0.0112824723152456,-0.0127851131769678,-3.60047169525559,-12.8915289135723,3.56104032673785,1,18.8489646034982,1.01984624695488,6.4379249400089,-0.016764981711029,-0.0120630920467932,-0.0123629717767196
3.8,72.364969576715,4.14972757476358,-9379.68790076303,19.8553108146849,-0.300740016436742,2.04748520788676,-0.0176376048968442,-0.0129631700318076,-0.0124162317981549,-3.64594710710373,-12.9284911818683,3.52633430552475,1,18.865219782024,0.99229742179512,6.45250619405915,-0.0149824083640155,-0.0137264919494504,-0.0118676061920121
3.85,73.3086373786728,4.19864664131163,-9379.36492640022,19.8742193196934,-0.318437406526766,2.04196765910579,-0.0156104396664397,-0.014536870859902,-0.0146105922582189,-3.68526432864718,-12.9703074896367,3.48927020164125,1,18.8815071271492,0.964416761786772,6.46639132646504,-0.012467457099012,-0.0154459166627994,-0.0140032859857393
3.9,74.2531235319959,4.24616521288427,-9379.04126421012,19.8934096567519,-0.335284034617639,2.03463989440329,-0.0137343674181377,-0.0159693300152286,-0.014171020202169,-3.71845546308508,-13.0166124912627,3.44994733146067,1,18.8979478915607,0.936286139875328,6.48003521651322,-0.0107047179324607,-0.016854754753231,-0.0134511461563713
3.95,75.1984327388238,4.29227166197283,-9378.71692813488,19.9127126976245,-0.352547474387797,2.02561335280655,-0.0118644777705096,-0.0172307557671068,-0.013732011108846,-3.74660118362916,-13.0667131711153,3.41218930041217,1,18.9144234574172,0.907939819009627,6.49336251209372,-0.00894548050967523,-0.018091233866501,-0.0129110369682485
4,76.1445637865125,4.33695604352814,-9378.39193593751,19.9320000994491,-0.368875392099138,2.01502805165841,-0.00985831287650449,-0.0182955508049786,-0.0158994595730337,-3.76863703698548,-13.1203237548143,3.37212430075189,1,18.9308158653694,0.879411929196246,6.50629544353558,-0.00644074654333044,-0.0193010234576539,-0.0150555719619291
4.05,77.0915138560281,4.3802109498674,-9378.06630100096,19.9513892997852,-0.382934438462743,2.00332818428335,-0.00786677514168153,-0.019142682758124,-0.0180265207397758,-3.78351847173085,-13.1770890979079,3.32594991968222,1,18.9471806179365,0.85076960415589,6.51908239721086,-0.00395123557258971,-0.0202904748491705,-0.0171763160681227
4.1,78.0392810566152,4.42203196845015,-9377.7400292115,19.9708557618377,-0.394712782360988,1.99080268684765,-0.00589305522724714,-0.0197562054108614,-0.0201120926135427,-3.79129335979558,-13.2363528137457,3.27373345970319,1,18.9634983451789,0.82206501387406,6.53177717041917,-0.00147996525384341,-0.021042826805243,-0.019273783351739
4.15,78.9878648112162,4.46241760980479,-9377.41311997285,19.9904712576992,-0.405522816933111,1.97787677911921,-0.00408616198848854,-0.0201256521125028,-0.0195335012282693,-3.79311467804645,-13.297169403968,3.21940134479002,1,18.9798417967996,0.793362192617018,6.54458311988751,0.000205571964847578,-0.0213737844640493,-0.0186595782695877
4.2,79.9372641550788,4.50136869764658,-9377.08557163649,20.0100618710087,-0.416662489216334,1.96466958667394,-0.00229997496693758,-0.0202454146057944,-0.0189504448839571,-3.79013324749086,-13.3585755789318,3.16680856671491,1,18.9961207825896,0.764689850580896,6.55734358883257,0.00187254210686286,-0.0214537988257869,-0.0180593629049928
4.25,80.8874757332824,4.5388877902394,-9376.75738622725,20.0296006332519,-0.428101680084834,1.95144651506059,-0.000536743485239986,-0.0201138118140091,-0.0183619065615872,-3.78240608472478,-13.4198491232807,3.11591640605238,1,19.0123307604534,0.736089116467185,6.57006605331596,0.00351827137271021,-0.0212812884305722,-0.0174721191187224
4.3,81.8384952137393,4.57497933044531,-9376.42856744096,20.0490239106573,-0.439283012300372,1.93840263030356,0.00125954644062726,-0.0197330622833018,-0.0188136256678281,-3.76955516115704,-13.4803679321542,3.06514725794535,1,19.0284367419625,0.707594525247188,6.58267720894355,0.00544873397687874,-0.0209272479477071,-0.0179706940153937
4.35,82.7903169633211,4.60964958351695,-9376.09912205339,20.0683106757322,-0.448851895951893,1.92574945321412,0.0031156070209134,-0.0191086862171425,-0.0208346504244077,-3.75053918802557,-13.5396673340566,3.01060987437105,1,19.0444217765133,0.679244774613066,6.59512684435915,0.00782107579728883,-0.0204306082722358,-0.0200986623755009
4.4,83.7429362993312,4.64290709000155,-9375.76905618556,20.0875312263871,-0.455998700683933,1.91379558626384,0.00493805569123552,-0.0182502286139939,-0.022807600839622,-3.72477924355841,-13.5971966383399,2.95001972061095,1,19.0603414914954,0.651091833860588,6.60748974903203,0.0101561939290273,-0.0196933473712845,-0.0221959126080726
4.45,84.6963501702201,4.67476275307934,-9375.43837526788,20.1066652225424,-0.460727033993419,1.90273060706955,0.00672368432369402,-0.0171712445916455,-0.0247315229514305,-3.69238822292749,-13.6522841375222,2.88346850989179,1,19.0762048213875,0.623177952634445,6.61972041601067,0.0124496989600952,-0.0187283037237494,-0.024259797022451
4.5,85.6505560198314,4.70522954997904,-9375.10708725696,20.1256923397755,-0.463042699129765,1.89271884060073,0.00846933094966495,-0.0158882596456339,-0.0266055060248998,-3.65349175529097,-13.704299322888,2.81105599054002,1,19.0920225493896,0.595543847506503,6.63176355167878,0.01469709814959,-0.0175513323806171,-0.0262873650518575
4.55,86.6055518651387,4.73432245608507,-9374.77520308708,20.1445921858826,-0.462953692236309,1.88389812870102,0.010171897233174,-0.01442034005757,-0.0284286883444024,-3.60822843032856,-13.7526609245767,2.73289071339395,1,19.1078067205925,0.568228734535146,6.64355560296835,0.0168938445772466,-0.0161808813968265,-0.028275434243835
4.6,87.5613363448832,4.76205837096016,-9374.44273704365,20.1633442179349,-0.460470206883101,1.87637908993578,0.0118283662123292,-0.0127886465821463,-0.0302002632828942,-3.55674987913082,-13.7968437122333,2.64909058842265,1,19.1235700662054,0.541270372742775,6.65502634540451,0.0190353894336513,-0.014637551414839,-0.0302206660424582
4.65,88.5179109131743,4.78845635564865,-9374.10970277185,20.1820233327686,-0.456963326618498,1.8703861816515,0.0132878138798068,-0.0110176848432059,-0.0292493252761242,-3.5003756249832,-13.8361508481813,2.56372490125266,1,19.1394132962364,0.514716689630844,6.66626965851736,0.0203125914205991,-0.0127829502184551,-0.0293744121919545
4.7,89.4752756617991,4.81353673348677,-9373.77612250349,20.2003596167476,-0.452426357528918,1.86567311516398,0.0148485680394722,-0.00913140582243271,-0.0309607127661089,-3.43925846803094,-13.8702051235882,2.47684749704648,1,19.1551782901151,0.488571366448926,6.67685533176711,0.0223444534473769,-0.0109723035530932,-0.0312689168355202
4.75,90.4334311838046,4.83732136402958,-9373.44202217995,20.2185846392805,-0.446870714588961,1.86257149294657,0.0162077283908885,-0.00715462788370639,-0.0299385939258422,-3.37357882259182,-13.8986940697921,2.38857514705302,1,19.1710469736652,0.46289155092945,6.68705616570124,0.0234990369443898,-0.00890399718368501,-0.0303544085922634
4.8,91.3923805938166,4.85983382953897,-9373.10742825816,20.2365126184337,-0.441484168192111,1.86090580996667,0.0175359065239386,-0.00511402424843408,-0.0292538598536606,-3.30452170144304,-13.9211892930025,2.30242603659175,1,19.186935171326,0.437688963332707,6.69658635149798,0.0247018626694322,-0.00679179582699541,-0.0297852983412074
4.85,92.3521234421056,4.88109841503007,-9372.7723793878,20.2540612911971,-0.434890105349915,1.86055305106435,0.0189412012964417,-0.00303244700377854,-0.0308871982950672,-3.23108837152089,-13.9377579937313,2.21448730399968,1,19.2027848664404,0.412981141301029,6.70524315720619,0.0265520118211204,-0.00476852913979573,-0.0315974733172608
4.9,93.3126619354874,4.90114114235299,-9372.43691278599,20.2714444877639,-0.427286533104158,1.86175361467338,0.020139535163133,-0.000934605630582497,-0.02977122495894,-3.15363550885143,-13.9482715452028,2.12542475267664,1,19.2187627701061,0.388818878032875,6.71328082163148,0.0275098244073893,-0.00257101061411732,-0.0305763044072795
4.95,94.2740005383708,4.91998958044701,-9372.10106591456,20.2884907682681,-0.420056788448368,1.86428316257156,0.0212836944010419,0.00115384917069378,-0.0286405479197297,-3.0735289917197,-13.9524983913072,2.0393195707512,1,19.2347896074822,0.365213178839396,6.72044233363876,0.0284045044504446,-0.000383444506048202,-0.0295325457609313
5,95.2361395314161,4.93767183499392,-9371.7648886224,20.3050846624919,-0.411816225665727,1.86791718626022,0.0225222197514176,0.00321295189397233,-0.0301980616562005,-2.98977244386793,-13.9507012907344,1.95224447709677,1,19.2507773471263,0.34217581061663,6.72648924888803,0.0300552682232345,0.00163351731498463,-0.0312461906178186
5.05,96.1990789846393,4.9542172786079,-9371.42843351498,20.3213622859479,-0.401200525363458,1.87272072804373,0.0236990568523334,0.00522423655490743,-0.0316991506117538,-2.90140265593762,-13.94317493392,1.86035677410862,1,19.2668075309624,0.319745354371554,6.73154517304538,0.0316247224785915,0.00361301144291285,-0.0328921133559537
5.1,97.1628209232627,4.96965694099511,-9371.09175154991,20.3373048082457,-0.388240630010262,1.87858348608369,0.0248125152329897,0.00716863485667308,-0.0331437324824852,-2.80865609393648,-13.9300544045091,1.76385258383971,1,19.282875790013,0.297949010624678,6.7355550044867,0.0331104628608654,0.0055359585319211,-0.0344689052124762
5.15,98.1273692905597,4.98402341719703,-9370.7548918865,20.3529963583829,-0.37436364638409,1.88552797292247,0.0257116576884149,0.00902648021288283,-0.0318154171386988,-2.71295689865429,-13.9113431055588,1.66694582249592,1,19.2990641541778,0.276821381133765,6.73864358284599,0.0336888520661917,0.00751046519497848,-0.0331802148190578
5.2,99.0927277729571,4.99735036120504,-9370.41790630313,20.3682709410814,-0.360979530730014,1.8932612645726,0.0265519212528371,0.0107802467606036,-0.0304725529228457,-2.61569776498149,-13.8871246016057,1.57377011094812,1,19.3152783479306,0.256370560535284,6.7405861795909,0.034199633523109,0.00937834865352601,-0.0318641535484141
5.25,100.058897330814,5.00967203240459,-9370.08085286953,20.3831173092995,-0.348096203052548,1.9016472234714,0.0273335429817628,0.0124172030911879,-0.0291153630575555,-2.51707118228691,-13.8577235848105,1.48440359858618,1,19.3315046550104,0.236613169167676,6.74135345129355,0.0346436701885037,0.0111265618761776,-0.0305209580317427
5.3,101.025877081047,5.02102340173434,-9369.74379304267,20.3974733311426,-0.33503622388483,1.91047579509531,0.0281301628142487,0.0139282801876379,-0.029079246302414,-2.41668927952296,-13.8235792100921,1.39695054309601,1,19.3476826175597,0.217561434916045,6.74084042845184,0.0354235505350408,0.0126897169829426,-0.0305248119050785
5.35,101.993664023131,5.03144021933611,-9369.40679108518,20.4113464144161,-0.320414704378972,1.9196131053944,0.0289416565192952,0.0153081479813406,-0.0304047800404367,-2.31357847401501,-13.7852216536061,1.30749208133878,1,19.3637885155842,0.199234538687496,6.73903868729099,0.0365470096123138,0.0140682715541241,-0.0319173177926164
5.4,102.962255103793,5.04095936540557,-9369.06990911721,20.4247991371815,-0.303550218984498,1.92900493575464,0.0296871981046643,0.0165524101953594,-0.0316745867559997,-2.20737288077326,-13.7430951105207,1.21414421953329,1,19.3798445166032,0.181658076118209,6.73604107970601,0.0375840496611578,0.015320136889313,-0.0332402677431575
5.45,103.93164726426,5.04961887670124,-9368.73320682307,20.4378173817287,-0.284486881354853,1.93851712115175,0.0303661716351191,0.0176574996371082,-0.0328891370391947,-2.09832053023743,-13.6975685840553,1.11710485868812,1,19.3958277416044,0.164852438194619,6.73185343239011,0.0385344006817936,0.0164414431602988,-0.0344946596038141
5.5,104.901836255934,5.05745777704326,-9368.39674337816,20.4503874771044,-0.263270653468546,1.94802096384316,0.0309781291178121,0.018622038748882,-0.0340489799710382,-1.98666980831088,-13.6490190640421,1.01656865437075,1,19.4117135270689,0.148836703610125,6.72649021815427,0.0393980807515643,0.0174304700378942,-0.0356817553380692
5.55,105.872816558962,5.06451600977538,-9368.06057702616,20.4624962289626,-0.239949253643757,1.95739504098334,0.0315227844354998,0.019446731304205,-0.0351547392874631,-1.87266866441889,-13.5978255088109,0.912726312233085,1,19.4274757407242,0.133628561820448,6.71997415635936,0.0401753724380265,0.0182875439913875,-0.0368030442584847
5.6,106.844581317095,5.07083436639503,-9367.72476467905,20.4741309366134,-0.214572055383079,1.96652678754229,0.0320000065665877,0.0201342251764923,-0.0362071093350559,-1.75656388942416,-13.5443631637857,0.80576399128964,1,19.443087115661,0.119244237017427,6.71233570431471,0.0408667977538238,0.0190149065320463,-0.0378602047722141
5.65,107.817124550354,5.07645453830104,-9367.3893571249,20.485396047567,-0.188613108705749,1.97546109617266,0.0322589600530468,0.020685962086396,-0.0344521228651893,-1.63976845299023,-13.4888859909919,0.699929637108632,1,19.458610986333,0.105702700269805,6.70378684734646,0.0406617213357298,0.019691628002918,-0.036023658630494
5.7,108.790436783201,5.08141857334338,-9367.05440800422,20.4960283681799,-0.162100195442101,1.98379461186465,0.0326102919592123,0.0211081798330257,-0.0354470459394805,-1.52248083702191,-13.431776503254,0.595305837282038,1,19.4738412721884,0.0930003225755443,6.69400877279605,0.0412066951299968,0.0201589293442259,-0.0370076213349112
5.75,109.76450700602,5.08576893514956,-9366.71996832644,20.506280408978,-0.135077813080439,1.99176143102583,0.0327444767712908,0.0214083970047374,-0.0336299186082663,-1.40491229365949,-13.3733952552549,0.492021990175704,1,19.488926796168,0.0811567944178658,6.68341542429255,0.0408621384510192,0.0205774268728892,-0.0350963932954441
5.8,110.739324664573,5.08954851776586,-9366.38608320774,20.5159873469972,-0.108709081148219,1.99910004854995,0.0328530937497212,0.021593049317677,-0.0323796012229093,-1.28817110616688,-13.3140134808639,0.393381956506973,1,19.5037337170225,0.0701695659151838,6.67183654012031,0.0406286096628544,0.020859668498661,-0.0337643485355726
5.85,111.714873748619,5.0928001536613,-9366.05280296967,20.5250793386399,-0.0815875991615214,2.00567448691019,0.0330244659643597,0.0216750991829289,-0.033308365271768,-1.17126723388242,-13.2540472716603,0.295347131943082,1,19.5181784117144,0.0600397976127517,6.65923233206572,0.0409727491840046,0.0209897125647859,-0.034667914478011
5.9,112.69113944851,5.09556701745793,-9365.72016908814,20.5337832906829,-0.0540586168201792,2.01172542987386,0.0329812826462507,0.0216643552959763,-0.0314193162028777,-1.05464088955613,-13.1937598036179,0.198884240975683,1,19.5323949223548,0.0507789140605313,6.64599036013725,0.0404392395503054,0.0210823839724935,-0.0326752494751884
5.95,113.668107555046,5.09789243913006,-9365.38821664699,20.5419672620242,-0.0275890237059647,2.01706149661356,0.0328844772671233,0.0215688526388666,-0.0295275396410597,-0.939615456438469,-13.1333432474125,0.108134466035602,1,19.5462703942998,0.0423815462128923,6.63198572879084,0.0398554667016569,0.0210817406033628,-0.0306797312282947
6,114.645758084283,5.09981944971863,-9365.05698655489,20.5495052102946,-0.000761835181659481,2.02152020496512,0.0328874908726903,0.0214032487765516,-0.0304081548469469,-0.825185797396295,-13.0731048818831,0.019013379659677,1,19.5596868442412,0.0348424011860254,6.61711005422292,0.0400194906654769,0.0209630995804159,-0.0315304426929393
6.05,115.62406965795,5.10139104816683,-9364.72651587894,20.5565226731393,0.0278159357468928,2.02526624270627,0.0328313275417327,0.0211820500762394,-0.0312429079211316,-0.710388875087527,-13.0132826059655,-0.0724761769727813,1,19.5727085389976,0.0281652429835371,6.60162015401913,0.0401120906329849,0.020793062812744,-0.0323335211639073
6.1,116.603022008345,5.10265034610165,-9364.39683367117,20.5630135310452,0.0580869792181524,2.02831013830322,0.0327167569343945,0.0209164105312538,-0.032032868892089,-0.595427336353002,-12.9540081836935,-0.166200170438228,1,19.5853145925535,0.0223502663813272,6.58558231051343,0.0401346494427967,0.0205823961387009,-0.0330906484890446
6.15,117.58259619007,5.10364043297652,-9364.06796124493,20.5691086321432,0.0885511677589041,2.03082270422277,0.0323924023323616,0.0206140984569871,-0.0299990541227892,-0.481635355502112,-12.8953503166705,-0.257933059987411,1,19.5975797536104,0.0173956422244967,6.56923719154033,0.0392999703322293,0.0203611973739257,-0.0309519052827
6.2,118.562772545223,5.10440406020653,-9363.73991716649,20.5746886742626,0.117733279437676,2.03266851130091,0.0320201126504693,0.0202827043181974,-0.0279685393954984,-0.370295152326428,-12.8373838098363,-0.343547476017406,1,19.6093987753301,0.0132899107931256,6.55245904169622,0.0384233406465989,0.020101524963711,-0.0288193912718623
6.25,119.543528371441,5.10498336437613,-9363.41272150833,20.5797610004928,0.145613559455794,2.03388622534019,0.0316017372330786,0.01993244380829,-0.0259424645727358,-0.261523874183773,-12.7802037712726,-0.423063299181044,1,19.6207562012076,0.0100205054909101,6.53531062811678,0.0375068711663908,0.0198138234294136,-0.0266945086517183
6.3,120.524839059443,5.10541982765518,-9363.08639353023,20.5842604961848,0.172908771653405,2.03444527502258,0.0312167723288995,0.0195743582563936,-0.0253389868682834,-0.1548602492321,-12.7238813920831,-0.498590841160925,1,19.6315907379112,0.00757419865158607,6.51776287738685,0.0369501837316006,0.0195058000904615,-0.0260310492643738
6.35,121.506678147975,5.10575431986753,-9362.76095149573,20.588179497839,0.201033997605753,2.03440810234203,0.03086009835869,0.0192199709750356,-0.0260871467602102,-0.04931024065,-12.6684457080165,-0.574210604120772,1,19.6418901495836,0.00593999697783226,6.49988323729235,0.0367277121098069,0.0191975125817264,-0.0267550165796381
6.4,122.489019740691,5.10602720193711,-9362.4364082971,20.5915734220453,0.230649518645744,2.03391302277735,0.0304540315243783,0.0188780646740731,-0.0267966486055141,0.0555179517540805,-12.6138735358601,-0.651849191458324,1,19.6516897090174,0.00510816553139215,6.48181786748907,0.0364465089340935,0.0189040209844483,-0.0274406537540813
6.45,123.471838682931,5.1062783360279,-9362.11277198918,20.5944399106091,0.261698610181743,2.03302028037632,0.0299997104398866,0.018554832509017,-0.0274686672169766,0.159458224496519,-12.5601138135167,-0.731398491828953,1,19.6609832784062,0.00506821094306542,6.46361537331491,0.0361080818034005,0.0186312078044462,-0.0280891399757419
6.5,124.455109564112,5.10654702422418,-9361.79004829732,20.5967769990761,0.294124754938612,2.03179210739251,0.0294983365191494,0.0182554013889727,-0.0281043986686943,0.262348850153781,-12.5071001385157,-0.812753732821336,1,19.6697667438015,0.0058082334191128,6.44532030217787,0.035713978351485,0.0183838954296189,-0.0287016288147926
6.55,125.438806816517,5.10687193973572,-9361.46824082372,20.5985831622318,0.327871715700153,2.03029153427846,0.0289511716037377,0.0179838129621379,-0.0287050589644131,0.364032593742974,-12.4547538354932,-0.895813422676713,1,19.678037915636,0.00731498820870879,6.42697301606601,0.035265787505756,0.0181658282779569,-0.0292792587982243
6.6,126.422907174838,5.10729097974682,-9361.14734681808,20.6000137282077,0.361433381389025,2.02873280719624,0.0282065530090183,0.0177401808905785,-0.026481227240275,0.463253069644603,-12.4030204337666,-0.976375103906971,1,19.6858919835538,0.0095699723891064,6.40878473050895,0.0339985578588019,0.0179537071431328,-0.0269662962636708
6.65,127.40738520566,5.10784116647871,-9360.82736676238,20.6008147863218,0.394782198448945,2.02686029502904,0.0275803057887082,0.0175267471150571,-0.0270633593725936,0.559904876751254,-12.3518290779764,-1.05444014069389,1,19.6931441264899,0.0125575600032088,6.39042269502525,0.0334689338714482,0.0177903741656566,-0.0275280005214343
6.7,128.392215474024,5.10855850126987,-9360.5082993609,20.6012534499737,0.427876983414347,2.02505023939873,0.0267601949914526,0.0173446292916543,-0.0248223654531665,0.653873129515731,-12.3011024634201,-1.12996475726526,1,19.6999829965504,0.0162523178929422,6.37228033696463,0.0321293325897652,0.0176267724467459,-0.025201399239243
6.75,129.377375173652,5.10947783248268,-9360.19013782341,20.6012401675114,0.459240764249951,2.02319364763866,0.0259091313117682,0.0171913663799558,-0.0225986910361309,0.743970916329682,-12.2508157689066,-1.19885274560157,1,19.7063220752833,0.0206330863391688,6.35419197033177,0.0307672424157031,0.0174833470654102,-0.0228949281161782
6.8,130.362837046275,5.11063292400353,-9359.87288333939,20.600623436349,0.490313437994377,2.02119074948503,0.0251825566330929,0.01706924493471,-0.0231855145743502,0.831226741093731,-12.2008516777783,-1.26526613012245,1,19.7120698993249,0.0256789744133405,6.33600395785331,0.0301417330591125,0.0174038040493271,-0.0234654691867762
6.85,131.348576313189,5.11205628156197,-9359.55653120271,20.5996721324204,0.521056684629368,2.01940658032486,0.0242682136153675,0.0169766977680649,-0.0209519997021369,0.915544779531279,-12.1511330874393,-1.32917040429668,1,19.7174199335927,0.0313597640677389,6.31809802836524,0.0287205115882082,0.0173093138544281,-0.0211519542774286
6.9,132.334571012151,5.11377911067787,-9359.24107176428,20.5983044695236,0.549996328117645,2.01771928549075,0.0233290981776419,0.0169089364399375,-0.0187394217507505,0.995768013020942,-12.1016601117658,-1.38648030857462,1,19.7222883881145,0.0376531392579866,6.30029817328736,0.027283437731893,0.0172320469592728,-0.0188619038802046
6.95,133.320795232731,5.11583145279652,-9358.92650315296,20.5963905674447,0.5783471943699,2.01603790684487,0.0224966422052536,0.0168654981350595,-0.0189018375915671,1.07276355092148,-12.052322074591,-1.44072014397937,1,19.7266013658663,0.0445360769022838,6.28246876759855,0.0264642708321261,0.0172164253023563,-0.0190016122581963
7,134.307222937968,5.1182421094101,-9358.6128232684,20.5939869564399,0.607528922345108,2.01450907152043,0.0216611994776441,0.0168454076114423,-0.0194855996169727,1.14753651582218,-12.002983210713,-1.49597910051681,1,19.7304291485888,0.0519820623772411,6.26475062795393,0.0257314941489339,0.017232266263598,-0.019572241776562
7.05,135.293830456387,5.12103866616948,-9358.30002564388,20.5911127645114,0.637722635391756,2.01318471550256,0.0207990449690315,0.016844847913175,-0.0200454524405132,1.22016286873684,-11.953569545705,-1.55283751890368,1,19.7337954958425,0.0599684284271114,6.24717911181551,0.0249659600842691,0.0172678812460093,-0.0201184622576922
7.1,136.280597365666,5.12424742318784,-9357.98809843523,20.5879513145654,0.667430453762205,2.01223749500469,0.0197586801960717,0.0168568643915815,-0.0177919493843296,1.2894843015435,-11.9041224288271,-1.60713144866647,1,19.7368073239833,0.0684656510786988,6.22993190881016,0.0234284502741766,0.0172529828025532,-0.0177907036637585
7.15,137.267503911462,5.12789335546538,-9357.67703015889,20.5844333800593,0.695184807143044,2.01151723168319,0.0187031104712025,0.0168746856759909,-0.0155653909537981,1.3543930659372,-11.8547174144754,-1.65479907903787,1,19.7393825236286,0.0774503094721204,6.21282223333085,0.0218857708388439,0.0172378813115236,-0.0154926171808915
7.2,138.254528498635,5.13200006337292,-9357.36681388586,20.5805756558994,0.720983518295948,2.01103203824623,0.0176347807291778,0.016893975318819,-0.0133667817879167,1.41487807257857,-11.8053603663642,-1.6959269936489,1,19.7415305614097,0.0868915104486361,6.19585203011229,0.0203405140219608,0.0172188740611894,-0.0132253024976831
7.25,139.241649549634,5.13658963263144,-9357.05744344536,20.5763598968179,0.745099705275452,2.010755686893,0.0165850561864192,0.016910771971943,-0.0117249475518928,1.47113540409608,-11.7560481798052,-1.73137917406281,1,19.7432424934641,0.0967596958597812,6.17898956238663,0.0189339833918922,0.0172062164491235,-0.0115287544125205
7.3,140.228843968949,5.14168278276012,-9356.74891609833,20.5716660599736,0.768975175248416,2.01059287473098,0.0156497365049158,0.0169228076242447,-0.0123639101625278,1.52421245882083,-11.7066982395138,-1.76531860142821,1,19.7444661703219,0.107030310338346,6.16213040861863,0.0181175065342732,0.0172456923364195,-0.0121623878062497
7.35,141.21608943914,5.14729886877027,-9356.44122780112,20.566565568477,0.793751721769984,2.01066930879655,0.0147002615803613,0.0169271237245773,-0.0129849469408343,1.57492310501553,-11.6572448719492,-1.80104768109097,1,19.7452861818496,0.11767320386643,6.14542746776537,0.0172822172790323,0.0172776093322727,-0.0127783831385154
7.4,142.203366023303,5.1534559133412,-9356.13437075801,20.5610669101775,0.819386853848638,2.01097377404381,0.0137381190016948,0.0169190494242083,-0.013589139891515,1.62321601935074,-11.6077166239497,-1.83851773530725,1,19.7457123457579,0.128664684148443,6.12888017329305,0.0164299107601245,0.0172971952766027,-0.0133780318000739
7.45,143.190654269521,5.16017074858152,-9355.82833719485,20.5551788625463,0.845839006960448,2.01149103344885,0.0127648012417187,0.0168941792682694,-0.0141775562945285,1.66904502608241,-11.5581553397004,-1.87768377162878,1,19.7457542373014,0.139980825758826,6.11248826936489,0.0155623848967416,0.017299950277214,-0.0139626140226579
7.5,144.177935197877,5.16745900513781,-9355.52311933761,20.5489104857282,0.873067567516973,2.0122023569955,0.0117818027988329,0.0168484363413645,-0.0147512466790377,1.71236909948247,-11.5086152884506,-1.91850444068195,1,19.7454211569157,0.15159750074279,6.09625204426552,0.0146814365036063,0.0172817095702631,-0.0145333917474816
7.55,145.165190286175,5.17533510283497,-9355.21870937999,20.5422711140288,0.901032896156498,2.013086074983,0.010790617307303,0.0167781258178132,-0.0153112428942407,1.75315235501296,-11.4591621258755,-1.9609419738224,1,19.744722110816,0.163490409329014,6.08017253046501,0.0137888573310194,0.0172386967388851,-0.0150916017343878
7.6,146.152403887498,5.18381202459115,-9354.9150950609,20.5354658046004,0.928255491178165,2.01427129144995,0.00964020676485488,0.0166782585598476,-0.0130776977235025,1.79033670309572,-11.4099976219157,-2.000888629111,1,19.7437639638958,0.175625746961841,6.06442437823669,0.0121730597858004,0.0170786928223687,-0.0128032840412653
7.65,147.139558515768,5.1929015584731,-9354.61226886904,20.5282495650138,0.95472736681581,2.0154162440208,0.00864535157768527,0.0165464172587868,-0.0136609249950607,1.82393666333453,-11.3612148701059,-2.03840974877615,1,19.7423636067288,0.187990139194321,6.04865076792963,0.0112830451453793,0.0169728383693722,-0.0133897341596752
7.7,148.126636996344,5.20261406271148,-9354.31022282992,20.5208964879835,0.980428754224827,2.01680952878989,0.00749515283697098,0.01638057972047,-0.0114551649039813,1.85395914166192,-11.3129118812376,-2.07352941193662,1,19.7407202477364,0.200539872904782,6.03321653415905,0.00967958801614098,0.0167426030802205,-0.011135582342485
7.75,149.113624979937,5.212958269624,-9354.0089447388,20.5133554444265,1.00396704963341,2.01825585321671,0.00635698699385545,0.0161778396929876,-0.00938528975231077,1.87945021950203,-11.265319176247,-2.1023952112809,1,19.7387448944443,0.213252923122357,6.01793413872262,0.00811975388206445,0.0164769433592837,-0.00902351624944275
7.8,150.10050377123,5.22394176712194,-9353.70843085913,20.5054519668832,1.02678927299407,2.01958509468765,0.00537431120652609,0.0159390125571062,-0.0100312420153731,1.90147719606373,-11.2184141683498,-2.1291904935948,1,19.736352907414,0.226106839927251,6.00265192585121,0.00725790956772735,0.0162630820130711,-0.00968184093491625
7.85,151.087257389697,5.23557050714162,-9353.40867203329,20.4974574645638,1.04882864985166,2.02107965936375,0.00424217066091695,0.0156635168753246,-0.00789511060159752,1.92002807922724,-11.1723071138597,-2.15380261855552,1,19.7337400720804,0.239058054605208,5.98773087671299,0.00569695460244865,0.0159192448830514,-0.00750816695239386
7.9,152.073872659963,5.24784883971699,-9353.10965470811,20.4893322420538,1.06865009509517,2.02255140579769,0.0031221469867286,0.015350061456201,-0.0057999625470262,1.93414162038837,-11.1272402625578,-2.17225231153151,1,19.7308201053739,0.25208533303852,5.97299371290046,0.0041603701393434,0.0155370692094312,-0.00537971560140714
7.95,153.060331950239,5.26078002830642,-9352.81137375852,20.4808879826302,1.08770098770946,2.02382179052011,0.00216820109392606,0.0150007196678183,-0.00651590773062325,1.94488978923374,-11.0831855270148,-2.18872178964331,1,19.7275011508172,0.265167761606243,5.95828037593103,0.00334412455052919,0.0152132165056034,-0.00611714669072851
8,154.046617800714,5.27436598097046,-9352.51382296655,20.4721904715863,1.10739861652954,2.02502898499186,0.00122214801462397,0.0146175543031331,-0.0072245916986918,1.95330759114144,-11.0401075040108,-2.20729556573087,1,19.7238837303796,0.278272114194764,5.94378936468866,0.00253368635834791,0.0148553111047364,-0.00684890384122935
8.05,155.032715470587,5.28860722874957,-9352.21699091513,20.4632511765182,1.12771432883625,2.02615179823338,0.000285101966986587,0.0142015197331453,-0.00792669698895694,1.95941353091285,-10.9981025638104,-2.22795831546081,1,19.7199751463643,0.291375829543625,5.92953284694123,0.00173035366330049,0.0144642421477473,-0.00757562798998764
8.1,156.018613031568,5.3035029397646,-9351.92086122216,20.4542908675451,1.14719396495215,2.02732421782039,-0.000793616470976014,0.0137528473870716,-0.0058590368067461,1.96224139011504,-10.9574011140051,-2.2466545216628,1,19.7158814353148,0.3044463621103,5.9156947193656,0.000248907400978445,0.0139454014115432,-0.0054846840428062
8.15,157.004299086239,5.3190509928512,-9351.62541733431,20.4452764511144,1.16441589607458,2.02836800628475,-0.00185331406791707,0.0132725245047297,-0.00383525674448917,1.96086928150535,-10.9182305236343,-2.2594285239311,1,19.7115160450487,0.317464620572212,5.90210316166313,-0.00120153206075483,0.0133959832661776,-0.00344115578577199
8.2,157.989760224599,5.33524804572717,-9351.33064654048,20.4362241069641,1.17940189049592,2.02926810392093,-0.00289231755393513,0.0127631188651544,-0.00185564104456392,1.95538809049596,-10.8806741240212,-2.2664161763974,1,19.7068859634746,0.330401569582855,5.8887735592723,-0.00261954491520622,0.0128190038226989,-0.00144504420638235
8.25,158.974982596127,5.35208939959536,-9351.03653675251,20.4270803686186,1.19263613067531,2.02996245364643,-0.00385986473297274,0.0122277315680919,-0.000815354890389827,1.94621005107012,-10.8447622742776,-2.26906154754077,1,19.7019663224441,0.343232180387276,5.87566639531503,-0.00378331037061651,0.0122483684736101,-0.00040688229706412
8.3,159.959951008847,5.3695691769183,-9350.74307784459,20.4177301960787,1.20555274528123,2.03039025970537,-0.00470381128321931,0.0116700963324287,-0.00166507996625119,1.93439692102492,-10.810425647505,-2.271497611567,1,19.6967283429248,0.355934760355007,5.8627426533677,-0.00446126719834227,0.0117196509888837,-0.00129315429630177
8.35,160.944651315018,5.38768029948535,-9350.45025709145,20.4082155421045,1.21909917941363,2.03065334605574,-0.00553035170382158,0.0110934336970904,-0.00251047442863651,1.92066388001864,-10.7776323393923,-2.27646716102913,1,19.6912434548139,0.368482812905977,5.85014265244302,-0.00512351210083318,0.0111713414670248,-0.00217563814506698
8.4,161.929071380419,5.40641456874583,-9350.15805794028,20.398547924569,1.23325413365717,2.03074793682068,-0.00633874359418913,0.0105003325515366,-0.00335196249594623,1.90505720070796,-10.7464348854944,-2.28395975333676,1,19.6855201497593,0.380857540825132,5.83788098020507,-0.00576917121774921,0.0106059594783924,-0.00305461495147774
8.45,162.913199502036,5.42576285996878,-9349.86646311645,20.3887387038369,1.24799727695945,2.03067256746483,-0.00712828146960997,0.00989343273254844,-0.00418994185897407,1.88762560123419,-10.7168785174726,-2.29396571059765,1,19.6795671866534,0.393040697649437,5.82597189908064,-0.00639741126617679,0.0100260779393522,-0.00393033795281588
8.5,163.897024421725,5.44571515029671,-9349.57545464319,20.3787990760537,1.26330923350146,2.03042796250423,-0.00789829758726755,0.00927538639654767,-0.00502478411139608,1.86842012790679,-10.6890010659603,-2.30647604388494,1,19.673393602705,0.405014608032441,5.8144292095494,-0.00700744028019051,0.00943428461639675,-0.00480303536212178
8.55,164.880535340288,5.4662605477742,-9349.28501386795,20.3687400669302,1.27917156850112,2.03001688537419,-0.00864816268216416,0.00864882193760081,-0.00585683520247737,1.84749403583953,-10.6628329701755,-2.32148238543292,1,19.6670087192005,0.416762186351909,5.80326612259451,-0.00759850829955321,0.00883314617549621,-0.00567291304909164
8.6,165.863724380956,5.48738708452143,-9348.9951172036,20.3587902219347,1.29415798131928,2.02959657190616,-0.0095281840377941,0.00801579276729457,-0.00394438920935393,1.82394477015749,-10.6385239500027,-2.33497072947233,1,19.6605209147455,0.428256906355556,5.79266431006179,-0.00883556565711226,0.00813727538887567,-0.00375174751148535
8.65,166.846581862279,5.50908204109357,-9348.70574522835,20.348706411092,1.30828155150616,2.02886119077285,-0.0102289750835323,0.00737913391383676,-0.00481848855535922,1.79786265756319,-10.6160863371546,-2.3470267038809,1,19.6537471261243,0.439495725138186,5.78228314458884,-0.00936965678748483,0.00752667412241507,-0.00466444571898451
8.7,167.829098505602,5.53133173513312,-9348.4168776721,20.338756015902,1.3215442386061,2.02812991956037,-0.0110579909502869,0.00674146865580796,-0.00295301468959043,1.76932785931881,-10.5955234205479,-2.3576945005108,1,19.6468899129208,0.450443389407482,5.7724868057111,-0.0105447883512909,0.00682943090396456,-0.00279104744312385
8.75,168.811267963619,5.55412134328033,-9348.12848986485,20.3289061541668,1.33261716524244,2.02724637204554,-0.0118507172507974,0.00610501107108005,-0.00125052516485892,1.73752401880443,-10.5769472654957,-2.36323320925406,1,19.6398613542796,0.461088749992564,5.76309508305192,-0.0116518810872228,0.00614012109693404,-0.00108324609433223
8.8,169.793079678228,5.577435440546,-9347.84056521048,20.3189594405727,1.34293345718811,2.02608129982818,-0.0124686902700939,0.00547274471706405,-0.0022094882438836,1.70351448736856,-10.560223493606,-2.36776651969818,1,19.6325811380191,0.471420146693847,5.75396466412304,-0.0120872952111174,0.00553600866116591,-0.0020810678346753
8.85,170.774526005704,5.60125752683742,-9347.55308170686,20.3091799742401,1.35243737748964,2.02495004805742,-0.0132121060759044,0.00484679112394657,-0.000435953129912781,1.66734454740732,-10.5453385072252,-2.37116565517427,1,19.6252485058858,0.481405722969642,5.74544779763551,-0.0131572372852654,0.004857423751055,-0.000299807300646555
8.9,171.75560227259,5.6255700945289,-9347.2660131314,20.2995449860956,1.35974840983535,2.02370618571531,-0.013923538903649,0.00422893535330353,0.00129087178722357,1.62816860456235,-10.5323813066502,-2.36952895698604,1,19.6177805044975,0.491036277071173,5.73736878356509,-0.0141857856847365,0.00419055035099731,0.00143467951941097
8.95,172.736299536476,5.65035515447771,-9346.97934167496,20.2898433198734,1.36629735048345,2.02220981642768,-0.0144519184972702,0.00362147218189161,0.000245657148246327,1.5870499479219,-10.5212055055133,-2.36697094572761,1,19.6100894197937,0.500303019692859,5.72956654318522,-0.014516152667706,0.00361327933862834,0.000351776418186858
